[{"address_components":[{"long_name":"205","short_name":"205","types":["street_number"]},{"long_name":"Wakelee Avenue","short_name":"Wakelee Ave","types":["route"]},{"long_name":"Ansonia","short_name":"Ansonia","types":["locality","political"]},{"long_name":"New Haven County","short_name":"New Haven County","types":["administrative_area_level_2","political"]},{"long_name":"Connecticut","short_name":"CT","types":["administrative_area_level_1","political"]},{"long_name":"United States","short_name":"US","types":["country","political"]},{"long_name":"06401","short_name":"06401","types":["postal_code"]},{"long_name":"1234","short_name":"1234","types":["postal_code_suffix"]}],"formatted_address":"205 Wakelee Ave, Ansonia, CT 06401, USA","geometry":{"bounds":{"northeast":{"lat":41.3462952,"lng":-73.0910482},"southwest":{"lat":41.3462062,"lng":-73.0913415}},"location":{"lat":41.3462551,"lng":-73.0911761},"location_type":"ROOFTOP","viewport":{"northeast":{"lat":41.3475996802915,"lng":-73.0898458697085},"southwest":{"lat":41.3449017197085,"lng":-73.0925438302915}}},"place_id":"ChIJJZuEg57g54kREOlmm9u4-0E","types":["premise"],"name":"CATHOLIC CHARITIES, INC."},{"address_components":[{"long_name":"121","short_name":"121","types":["street_number"]},{"long_name":"Wakelee Avenue","short_name":"Wakelee Ave","types":["route"]},{"long_name":"Ansonia","short_name":"Ansonia","types":["locality","political"]},{"long_name":"New Haven County","short_name":"New Haven County","types":["administrative_area_level_2","political"]},{"long_name":"Connecticut","short_name":"CT","types":["administrative_area_level_1","political"]},{"long_name":"United States","short_name":"US","types":["country","political"]},{"long_name":"06401","short_name":"06401","types":["postal_code"]},{"long_name":"1198","short_name":"1198","types":["postal_code_suffix"]}],"formatted_address":"121 Wakelee Ave, Ansonia, CT 06401, USA","geometry":{"bounds":{"northeast":{"lat":41.3403709,"lng":-73.0909065},"southwest":{"lat":41.33989469999999,"lng":-73.09124059999999}},"location":{"lat":41.3401283,"lng":-73.091115},"location_type":"ROOFTOP","viewport":{"northeast":{"lat":41.3414817802915,"lng":-73.08972456970848},"southwest":{"lat":41.3387838197085,"lng":-73.0924225302915}}},"place_id":"ChIJA6D9I4Pg54kRghnxsQvMT2M","types":["premise"],"name":"ANSONIA COUNSELING SERVICES"},{"address_components":[{"long_name":"45","short_name":"45","types":["street_number"]},{"long_name":"West Main Street","short_name":"W Main St","types":["route"]},{"long_name":"Upton","short_name":"Upton","types":["locality","political"]},{"long_name":"Worcester County","short_name":"Worcester County","types":["administrative_area_level_2","political"]},{"long_name":"Massachusetts","short_name":"MA","types":["administrative_area_level_1","political"]},{"long_name":"United States","short_name":"US","types":["country","political"]},{"long_name":"01568","short_name":"01568","types":["postal_code"]}],"formatted_address":"45 W Main St, Upton, MA 01568, USA","geometry":{"bounds":{"northeast":{"lat":42.1773079,"lng":-71.6364976},"southwest":{"lat":42.1770927,"lng":-71.6367254}},"location":{"lat":42.17720670000001,"lng":-71.6366264},"location_type":"ROOFTOP","viewport":{"northeast":{"lat":42.1785492802915,"lng":-71.63526251970849},"southwest":{"lat":42.1758513197085,"lng":-71.6379604802915}}},"place_id":"ChIJBdz5RLEN5IkRsq6GUZokW7U","types":["premise"],"name":"BRIDGE FAMILY CENTER"},{"address_components":[{"long_name":"201","short_name":"201","types":["subpremise"]},{"long_name":"35","short_name":"35","types":["street_number"]},{"long_name":"Tower Lane","short_name":"Tower Ln","types":["route"]},{"long_name":"Avon","short_name":"Avon","types":["locality","political"]},{"long_name":"Hartford County","short_name":"Hartford County","types":["administrative_area_level_2","political"]},{"long_name":"Connecticut","short_name":"CT","types":["administrative_area_level_1","political"]},{"long_name":"United States","short_name":"US","types":["country","political"]},{"long_name":"06001","short_name":"06001","types":["postal_code"]},{"long_name":"4237","short_name":"4237","types":["postal_code_suffix"]}],"formatted_address":"35 Tower Ln #201, Avon, CT 06001, USA","geometry":{"bounds":{"northeast":{"lat":41.8074381,"lng":-72.8435407},"southwest":{"lat":41.8070367,"lng":-72.8438646}},"location":{"lat":41.8072752,"lng":-72.84365509999999},"location_type":"ROOFTOP","viewport":{"northeast":{"lat":41.8085863802915,"lng":-72.84235366970852},"southwest":{"lat":41.8058884197085,"lng":-72.84505163029152}}},"place_id":"EiUyMDEsIDM1IFRvd2VyIExuLCBBdm9uLCBDVCAwNjAwMSwgVVNBIh8aHQoWChQKEgkdRxhsL6nniRGFAa-P_Yo9aBIDMjAx","types":["subpremise"],"name":"RUSHFORD OF AVON"}]