[{"address_components":[{"long_name":"Milford","short_name":"Milford","types":["locality","political"]},{"long_name":"Connecticut","short_name":"CT","types":["administrative_area_level_1","political"]},{"long_name":"United States","short_name":"US","types":["country","political"]},{"long_name":"06460","short_name":"06460","types":["postal_code"]}],"formatted_address":"Stop & Shop - NY Metro, 855 Bridgeport Ave, Milford, CT 06460, United States","geometry":{"location":{"lat":41.211636,"lng":-73.076675},"location_type":"GEOMETRIC_CENTER","viewport":{"northeast":{"lat":41.2129849802915,"lng":-73.07532601970848},"southwest":{"lat":41.2102870197085,"lng":-73.07802398029149}}},"place_id":"ChIJScBK-1dz6IkRREH9h5sv6Q0","plus_code":{"compound_code":"6W6F+M8 Milford, Connecticut, United States","global_code":"87H86W6F+M8"},"types":["establishment","finance","point_of_interest"],"name":"STOP & SHOP PHARMACY #647"},{"address_components":[{"long_name":"215","short_name":"215","types":["street_number"]},{"long_name":"East Main Street","short_name":"E Main St","types":["route"]},{"long_name":"Clinton","short_name":"Clinton","types":["locality","political"]},{"long_name":"Middlesex County","short_name":"Middlesex County","types":["administrative_area_level_2","political"]},{"long_name":"Connecticut","short_name":"CT","types":["administrative_area_level_1","political"]},{"long_name":"United States","short_name":"US","types":["country","political"]},{"long_name":"06413","short_name":"06413","types":["postal_code"]}],"formatted_address":"215 E Main St, Clinton, CT 06413, USA","geometry":{"location":{"lat":41.2732329,"lng":-72.5060464},"location_type":"ROOFTOP","viewport":{"northeast":{"lat":41.27458188029149,"lng":-72.50469741970849},"southwest":{"lat":41.2718839197085,"lng":-72.5073953802915}}},"partial_match":true,"place_id":"ChIJmXLvpg8m5okRyZ06HQTdSr8","plus_code":{"compound_code":"7FFV+7H Clinton, Connecticut, United States","global_code":"87H97FFV+7H"},"types":["street_address"],"name":"STOP & SHOP #652"},{"address_components":[{"long_name":"2300","short_name":"2300","types":["street_number"]},{"long_name":"Dixwell Avenue","short_name":"Dixwell Ave","types":["route"]},{"long_name":"Hamden","short_name":"Hamden","types":["locality","political"]},{"long_name":"New Haven County","short_name":"New Haven County","types":["administrative_area_level_2","political"]},{"long_name":"Connecticut","short_name":"CT","types":["administrative_area_level_1","political"]},{"long_name":"United States","short_name":"US","types":["country","political"]},{"long_name":"06514","short_name":"06514","types":["postal_code"]}],"formatted_address":"2300 Dixwell Ave, Hamden, CT 06514, USA","geometry":{"location":{"lat":41.3731401,"lng":-72.9180753},"location_type":"ROOFTOP","viewport":{"northeast":{"lat":41.3744890802915,"lng":-72.91672631970849},"southwest":{"lat":41.3717911197085,"lng":-72.91942428029151}}},"partial_match":true,"place_id":"ChIJNy1CYGja54kRID0KrasYTTg","plus_code":{"compound_code":"93FJ+7Q Hamden, Wallingford, CT, United States","global_code":"87H993FJ+7Q"},"types":["street_address"],"name":"WAL-MART STORE #3545"},{"address_components":[{"long_name":"15","short_name":"15","types":["street_number"]},{"long_name":"Chesterfield Road","short_name":"Chesterfield Rd","types":["route"]},{"long_name":"East Lyme","short_name":"East Lyme","types":["locality","political"]},{"long_name":"New London County","short_name":"New London County","types":["administrative_area_level_2","political"]},{"long_name":"Connecticut","short_name":"CT","types":["administrative_area_level_1","political"]},{"long_name":"United States","short_name":"US","types":["country","political"]},{"long_name":"06333","short_name":"06333","types":["postal_code"]}],"formatted_address":"15 Chesterfield Rd, East Lyme, CT 06333, USA","geometry":{"bounds":{"northeast":{"lat":41.3676835,"lng":-72.2082175},"southwest":{"lat":41.3665947,"lng":-72.2090637}},"location":{"lat":41.3674617,"lng":-72.2087114},"location_type":"ROOFTOP","viewport":{"northeast":{"lat":41.3684880802915,"lng":-72.2072916197085},"southwest":{"lat":41.3657901197085,"lng":-72.2099895802915}}},"partial_match":true,"place_id":"ChIJG_ZLWRQR5okRkaadNkqGMQk","types":["premise"],"name":"CVS PHARMACY #4473"},{"address_components":[{"long_name":"1093","short_name":"1093","types":["street_number"]},{"long_name":"North Main Street","short_name":"N Main St","types":["route"]},{"long_name":"Dayville","short_name":"Dayville","types":["neighborhood","political"]},{"long_name":"Killingly","short_name":"Killingly","types":["locality","political"]},{"long_name":"Windham County","short_name":"Windham County","types":["administrative_area_level_2","political"]},{"long_name":"Connecticut","short_name":"CT","types":["administrative_area_level_1","political"]},{"long_name":"United States","short_name":"US","types":["country","political"]},{"long_name":"06241","short_name":"06241","types":["postal_code"]}],"formatted_address":"1093 N Main St, Dayville, CT 06241, USA","geometry":{"bounds":{"northeast":{"lat":41.8412575,"lng":-71.8771417},"southwest":{"lat":41.8408703,"lng":-71.8776644}},"location":{"lat":41.8410309,"lng":-71.87746849999999},"location_type":"ROOFTOP","viewport":{"northeast":{"lat":41.8424128802915,"lng":-71.87605406970849},"southwest":{"lat":41.8397149197085,"lng":-71.8787520302915}}},"partial_match":true,"place_id":"ChIJwdeL_d4o5IkRqRB7RUCvN4I","types":["premise"],"name":"WALGREENS #12058"},{"address_components":[{"long_name":"964","short_name":"964","types":["street_number"]},{"long_name":"Post Road","short_name":"Post Rd","types":["route"]},{"long_name":"Darien","short_name":"Darien","types":["locality","political"]},{"long_name":"Fairfield County","short_name":"Fairfield County","types":["administrative_area_level_2","political"]},{"long_name":"Connecticut","short_name":"CT","types":["administrative_area_level_1","political"]},{"long_name":"United States","short_name":"US","types":["country","political"]},{"long_name":"06820","short_name":"06820","types":["postal_code"]}],"formatted_address":"964 Post Rd, Darien, CT 06820, USA","geometry":{"location":{"lat":41.0762967,"lng":-73.47061599999999},"location_type":"ROOFTOP","viewport":{"northeast":{"lat":41.0776456802915,"lng":-73.46926701970848},"southwest":{"lat":41.0749477197085,"lng":-73.47196498029149}}},"place_id":"ChIJ1ZwXy4CgwokReAYp_glEU8Y","plus_code":{"compound_code":"3GGH+GQ Darien, Oyster Bay, CT, United States","global_code":"87H83GGH+GQ"},"types":["convenience_store","establishment","food","health","point_of_interest","store"],"name":"CVS PHARMACY #918"},{"address_components":[{"long_name":"2380","short_name":"2380","types":["street_number"]},{"long_name":"Dixwell Avenue","short_name":"Dixwell Ave","types":["route"]},{"long_name":"Hamden","short_name":"Hamden","types":["locality","political"]},{"long_name":"New Haven County","short_name":"New Haven County","types":["administrative_area_level_2","political"]},{"long_name":"Connecticut","short_name":"CT","types":["administrative_area_level_1","political"]},{"long_name":"United States","short_name":"US","types":["country","political"]},{"long_name":"06514","short_name":"06514","types":["postal_code"]},{"long_name":"1847","short_name":"1847","types":["postal_code_suffix"]}],"formatted_address":"2380 Dixwell Ave, Hamden, CT 06514, USA","geometry":{"location":{"lat":41.376455,"lng":-72.9169469},"location_type":"ROOFTOP","viewport":{"northeast":{"lat":41.3778039802915,"lng":-72.91559791970849},"southwest":{"lat":41.3751060197085,"lng":-72.91829588029151}}},"partial_match":true,"place_id":"ChIJffLvm2ba54kREFtH27RxhHQ","plus_code":{"compound_code":"93GM+H6 Hamden, Wallingford, CT, United States","global_code":"87H993GM+H6"},"types":["street_address"],"name":"ANNEX PHARMACY"},{"address_components":[{"long_name":"875","short_name":"875","types":["street_number"]},{"long_name":"Enfield Street","short_name":"Enfield St","types":["route"]},{"long_name":"Thompsonville","short_name":"Thompsonville","types":["neighborhood","political"]},{"long_name":"Enfield","short_name":"Enfield","types":["locality","political"]},{"long_name":"Hartford County","short_name":"Hartford County","types":["administrative_area_level_2","political"]},{"long_name":"Connecticut","short_name":"CT","types":["administrative_area_level_1","political"]},{"long_name":"United States","short_name":"US","types":["country","political"]},{"long_name":"06082","short_name":"06082","types":["postal_code"]},{"long_name":"3617","short_name":"3617","types":["postal_code_suffix"]}],"formatted_address":"875 Enfield St, Enfield, CT 06082, USA","geometry":{"bounds":{"northeast":{"lat":41.9981598,"lng":-72.5933383},"southwest":{"lat":41.9979003,"lng":-72.5938693}},"location":{"lat":41.9980094,"lng":-72.5936633},"location_type":"ROOFTOP","viewport":{"northeast":{"lat":41.99937903029149,"lng":-72.59225481970849},"southwest":{"lat":41.9966810697085,"lng":-72.5949527802915}}},"partial_match":true,"place_id":"ChIJ_x8-Trbk5okRC-nhuUB3zHo","types":["premise"],"name":"CVS PHARMACY #750"},{"address_components":[{"long_name":"358","short_name":"358","types":["street_number"]},{"long_name":"West Main Street","short_name":"W Main St","types":["route"]},{"long_name":"Avon","short_name":"Avon","types":["locality","political"]},{"long_name":"Hartford County","short_name":"Hartford County","types":["administrative_area_level_2","political"]},{"long_name":"Connecticut","short_name":"CT","types":["administrative_area_level_1","political"]},{"long_name":"United States","short_name":"US","types":["country","political"]},{"long_name":"06001","short_name":"06001","types":["postal_code"]},{"long_name":"3643","short_name":"3643","types":["postal_code_suffix"]}],"formatted_address":"358 W Main St, Avon, CT 06001, USA","geometry":{"bounds":{"northeast":{"lat":41.81624,"lng":-72.8606494},"southwest":{"lat":41.8158211,"lng":-72.86109809999999}},"location":{"lat":41.816035,"lng":-72.8609106},"location_type":"ROOFTOP","viewport":{"northeast":{"lat":41.8173795302915,"lng":-72.85952476970849},"southwest":{"lat":41.8146815697085,"lng":-72.8622227302915}}},"partial_match":true,"place_id":"ChIJXdk1hNyo54kRCl30WBIfU28","types":["premise"],"name":"CVS PHARMACY #1180"},{"address_components":[{"long_name":"764","short_name":"764","types":["street_number"]},{"long_name":"Campbell Avenue","short_name":"Campbell Ave","types":["route"]},{"long_name":"West Haven","short_name":"West Haven","types":["locality","political"]},{"long_name":"New Haven County","short_name":"New Haven County","types":["administrative_area_level_2","political"]},{"long_name":"Connecticut","short_name":"CT","types":["administrative_area_level_1","political"]},{"long_name":"United States","short_name":"US","types":["country","political"]},{"long_name":"06516","short_name":"06516","types":["postal_code"]},{"long_name":"3786","short_name":"3786","types":["postal_code_suffix"]}],"formatted_address":"764 Campbell Ave, West Haven, CT 06516, USA","geometry":{"bounds":{"northeast":{"lat":41.2792808,"lng":-72.9553522},"southwest":{"lat":41.2789163,"lng":-72.9561689}},"location":{"lat":41.2791238,"lng":-72.95560449999999},"location_type":"ROOFTOP","viewport":{"northeast":{"lat":41.2804475302915,"lng":-72.95441156970848},"southwest":{"lat":41.2777495697085,"lng":-72.9571095302915}}},"partial_match":true,"place_id":"ChIJKdKrAoXY54kRkMVIS-Tulz4","types":["premise"],"name":"WEST HAVEN PHARMACY"},{"address_components":[{"long_name":"593","short_name":"593","types":["street_number"]},{"long_name":"Newfield Avenue","short_name":"Newfield Ave","types":["route"]},{"long_name":"Stamford","short_name":"Stamford","types":["locality","political"]},{"long_name":"Fairfield County","short_name":"Fairfield County","types":["administrative_area_level_2","political"]},{"long_name":"Connecticut","short_name":"CT","types":["administrative_area_level_1","political"]},{"long_name":"United States","short_name":"US","types":["country","political"]},{"long_name":"06905","short_name":"06905","types":["postal_code"]}],"formatted_address":"593 Newfield Ave, Stamford, CT 06905, USA","geometry":{"location":{"lat":41.0806386,"lng":-73.53234189999999},"location_type":"ROOFTOP","viewport":{"northeast":{"lat":41.0819875802915,"lng":-73.5309929197085},"southwest":{"lat":41.0792896197085,"lng":-73.5336908802915}}},"partial_match":true,"place_id":"ChIJqzfcDqGhwokRS3c7RYchEJc","plus_code":{"compound_code":"3FJ9+73 Stamford, Connecticut, United States","global_code":"87H83FJ9+73"},"types":["street_address"],"name":"CVS PHARMACY #1051"},{"address_components":[{"long_name":"185","short_name":"185","types":["street_number"]},{"long_name":"Grove Street","short_name":"Grove St","types":["route"]},{"long_name":"Waterbury","short_name":"Waterbury","types":["locality","political"]},{"long_name":"New Haven County","short_name":"New Haven County","types":["administrative_area_level_2","political"]},{"long_name":"Connecticut","short_name":"CT","types":["administrative_area_level_1","political"]},{"long_name":"United States","short_name":"US","types":["country","political"]},{"long_name":"06710","short_name":"06710","types":["postal_code"]}],"formatted_address":"185 Grove St, Waterbury, CT 06710, USA","geometry":{"bounds":{"northeast":{"lat":41.5598082,"lng":-73.0426967},"southwest":{"lat":41.5596559,"lng":-73.042821}},"location":{"lat":41.5597538,"lng":-73.0427883},"location_type":"ROOFTOP","viewport":{"northeast":{"lat":41.56108103029149,"lng":-73.0414098697085},"southwest":{"lat":41.55838306970849,"lng":-73.04410783029151}}},"partial_match":true,"place_id":"ChIJHaECBlXA54kRm2tusAzlZLY","types":["premise"],"name":"STOLL'S PHARMACY"},{"address_components":[{"long_name":"441","short_name":"441","types":["street_number"]},{"long_name":"Long Hill Road","short_name":"Long Hill Rd","types":["route"]},{"long_name":"Long Hill","short_name":"Long Hill","types":["neighborhood","political"]},{"long_name":"Groton","short_name":"Groton","types":["locality","political"]},{"long_name":"Groton","short_name":"Groton","types":["administrative_area_level_3","political"]},{"long_name":"New London County","short_name":"New London County","types":["administrative_area_level_2","political"]},{"long_name":"Connecticut","short_name":"CT","types":["administrative_area_level_1","political"]},{"long_name":"United States","short_name":"US","types":["country","political"]},{"long_name":"06340","short_name":"06340","types":["postal_code"]},{"long_name":"4149","short_name":"4149","types":["postal_code_suffix"]}],"formatted_address":"441 Long Hill Rd, Groton, CT 06340, USA","geometry":{"bounds":{"northeast":{"lat":41.3548712,"lng":-72.06113959999999},"southwest":{"lat":41.3541344,"lng":-72.0617475}},"location":{"lat":41.3545604,"lng":-72.06153789999999},"location_type":"ROOFTOP","viewport":{"northeast":{"lat":41.35585178029149,"lng":-72.06009456970848},"southwest":{"lat":41.3531538197085,"lng":-72.06279253029149}}},"partial_match":true,"place_id":"ChIJuQx44boO5okROH33Hd6VJXE","types":["premise"],"name":"WALGREENS #07759"},{"address_components":[{"long_name":"465","short_name":"465","types":["street_number"]},{"long_name":"Bridgeport Avenue","short_name":"Bridgeport Ave","types":["route"]},{"long_name":"Shelton","short_name":"Shelton","types":["locality","political"]},{"long_name":"Fairfield County","short_name":"Fairfield County","types":["administrative_area_level_2","political"]},{"long_name":"Connecticut","short_name":"CT","types":["administrative_area_level_1","political"]},{"long_name":"United States","short_name":"US","types":["country","political"]},{"long_name":"06484","short_name":"06484","types":["postal_code"]}],"formatted_address":"465 Bridgeport Ave, Shelton, CT 06484, USA","geometry":{"bounds":{"northeast":{"lat":41.2920026,"lng":-73.1120862},"southwest":{"lat":41.2907936,"lng":-73.1138131}},"location":{"lat":41.2914878,"lng":-73.11301569999999},"location_type":"ROOFTOP","viewport":{"northeast":{"lat":41.2927470802915,"lng":-73.1116006697085},"southwest":{"lat":41.2900491197085,"lng":-73.1142986302915}}},"partial_match":true,"place_id":"ChIJQViZSp8K6IkR0A00_P3qiYY","types":["premise"],"name":"WAL-MART PHARMACY #10-2163"},{"address_components":[{"long_name":"220","short_name":"220","types":["street_number"]},{"long_name":"Salem Turnpike","short_name":"Salem Turnpike","types":["route"]},{"long_name":"Westside Norwich","short_name":"Westside Norwich","types":["neighborhood","political"]},{"long_name":"Norwich","short_name":"Norwich","types":["locality","political"]},{"long_name":"New London County","short_name":"New London County","types":["administrative_area_level_2","political"]},{"long_name":"Connecticut","short_name":"CT","types":["administrative_area_level_1","political"]},{"long_name":"United States","short_name":"US","types":["country","political"]},{"long_name":"06360","short_name":"06360","types":["postal_code"]}],"formatted_address":"220 Salem Turnpike, Norwich, CT 06360, USA","geometry":{"location":{"lat":41.5046821,"lng":-72.1225613},"location_type":"ROOFTOP","viewport":{"northeast":{"lat":41.50603108029149,"lng":-72.12121231970849},"southwest":{"lat":41.50333311970849,"lng":-72.1239102802915}}},"partial_match":true,"place_id":"ChIJp-3lPGly5okRXzBfLEVHnXU","plus_code":{"compound_code":"GV3G+VX Norwich, Connecticut, United States","global_code":"87H9GV3G+VX"},"types":["street_address"],"name":"WAL-MART PHARMACY #10-2170"},{"address_components":[{"long_name":"190","short_name":"190","types":["street_number"]},{"long_name":"Weston Road","short_name":"Weston Rd","types":["route"]},{"long_name":"Weston","short_name":"Weston","types":["locality","political"]},{"long_name":"Fairfield County","short_name":"Fairfield County","types":["administrative_area_level_2","political"]},{"long_name":"Connecticut","short_name":"CT","types":["administrative_area_level_1","political"]},{"long_name":"United States","short_name":"US","types":["country","political"]},{"long_name":"06883","short_name":"06883","types":["postal_code"]},{"long_name":"2126","short_name":"2126","types":["postal_code_suffix"]}],"formatted_address":"190 Weston Rd, Weston, CT 06883, USA","geometry":{"location":{"lat":41.2019648,"lng":-73.3823845},"location_type":"ROOFTOP","viewport":{"northeast":{"lat":41.2033137802915,"lng":-73.3810355197085},"southwest":{"lat":41.2006158197085,"lng":-73.38373348029151}}},"partial_match":true,"place_id":"ChIJQ-JhJWYD6IkRrTGvaCajyl8","plus_code":{"compound_code":"6J29+Q2 Weston, Connecticut, United States","global_code":"87H86J29+Q2"},"types":["street_address"],"name":"THE WESTON CENTER PHARMACY"},{"address_components":[{"long_name":"200","short_name":"200","types":["street_number"]},{"long_name":"New Hartford Road","short_name":"New Hartford Rd","types":["route"]},{"long_name":"Winsted","short_name":"Winsted","types":["neighborhood","political"]},{"long_name":"Winchester","short_name":"Winchester","types":["locality","political"]},{"long_name":"Litchfield County","short_name":"Litchfield County","types":["administrative_area_level_2","political"]},{"long_name":"Connecticut","short_name":"CT","types":["administrative_area_level_1","political"]},{"long_name":"United States","short_name":"US","types":["country","political"]},{"long_name":"06098","short_name":"06098","types":["postal_code"]}],"formatted_address":"200 New Hartford Rd, Winsted, CT 06098, USA","geometry":{"location":{"lat":41.9088607,"lng":-73.0499068},"location_type":"ROOFTOP","viewport":{"northeast":{"lat":41.9102096802915,"lng":-73.04855781970849},"southwest":{"lat":41.9075117197085,"lng":-73.05125578029151}}},"partial_match":true,"place_id":"ChIJO8LX9IIK54kR0Kou8KTf2UM","plus_code":{"compound_code":"WX52+G2 Winchester, Connecticut, United States","global_code":"87H8WX52+G2"},"types":["street_address"],"name":"STOP & SHOP PHARMACY #625"},{"address_components":[{"long_name":"20","short_name":"20","types":["street_number"]},{"long_name":"Bank Street","short_name":"Bank St","types":["route"]},{"long_name":"Salmon Brook","short_name":"Salmon Brook","types":["neighborhood","political"]},{"long_name":"Granby","short_name":"Granby","types":["locality","political"]},{"long_name":"Hartford County","short_name":"Hartford County","types":["administrative_area_level_2","political"]},{"long_name":"Connecticut","short_name":"CT","types":["administrative_area_level_1","political"]},{"long_name":"United States","short_name":"US","types":["country","political"]},{"long_name":"06035","short_name":"06035","types":["postal_code"]}],"formatted_address":"20 Bank St, Granby, CT 06035, USA","geometry":{"bounds":{"northeast":{"lat":41.9523477,"lng":-72.7857905},"southwest":{"lat":41.9520653,"lng":-72.78637499999999}},"location":{"lat":41.9522237,"lng":-72.7860883},"location_type":"ROOFTOP","viewport":{"northeast":{"lat":41.95355548029149,"lng":-72.7847337697085},"southwest":{"lat":41.9508575197085,"lng":-72.7874317302915}}},"partial_match":true,"place_id":"ChIJNyjqc-YD54kRXig22XoZ8K4","types":["premise"],"name":"CVS PHARMACY #1202"},{"address_components":[{"long_name":"44","short_name":"44","types":["street_number"]},{"long_name":"Lake Avenue Extension","short_name":"Lake Ave Ext","types":["route"]},{"long_name":"Danbury","short_name":"Danbury","types":["locality","political"]},{"long_name":"Fairfield County","short_name":"Fairfield County","types":["administrative_area_level_2","political"]},{"long_name":"Connecticut","short_name":"CT","types":["administrative_area_level_1","political"]},{"long_name":"United States","short_name":"US","types":["country","political"]},{"long_name":"06811","short_name":"06811","types":["postal_code"]},{"long_name":"5244","short_name":"5244","types":["postal_code_suffix"]}],"formatted_address":"44 Lake Ave Ext, Danbury, CT 06811, USA","geometry":{"bounds":{"northeast":{"lat":41.386392,"lng":-73.4872645},"southwest":{"lat":41.3856037,"lng":-73.4885699}},"location":{"lat":41.3860072,"lng":-73.4879294},"location_type":"ROOFTOP","viewport":{"northeast":{"lat":41.3873468302915,"lng":-73.48656821970849},"southwest":{"lat":41.3846488697085,"lng":-73.48926618029151}}},"partial_match":true,"place_id":"ChIJq991pXRV3YkRZqKuinRB-bk","types":["premise"],"name":"STOP & SHOP PHARMACY #644"},{"address_components":[{"long_name":"252","short_name":"252","types":["street_number"]},{"long_name":"Orange Avenue","short_name":"Orange Ave","types":["route"]},{"long_name":"Milford","short_name":"Milford","types":["locality","political"]},{"long_name":"New Haven County","short_name":"New Haven County","types":["administrative_area_level_2","political"]},{"long_name":"Connecticut","short_name":"CT","types":["administrative_area_level_1","political"]},{"long_name":"United States","short_name":"US","types":["country","political"]},{"long_name":"06461","short_name":"06461","types":["postal_code"]}],"formatted_address":"252 Orange Ave, Milford, CT 06461, USA","geometry":{"location":{"lat":41.238167,"lng":-73.0504505},"location_type":"RANGE_INTERPOLATED","viewport":{"northeast":{"lat":41.23951598029149,"lng":-73.04910151970849},"southwest":{"lat":41.23681801970849,"lng":-73.0517994802915}}},"partial_match":true,"place_id":"EiYyNTIgT3JhbmdlIEF2ZSwgTWlsZm9yZCwgQ1QgMDY0NjEsIFVTQSIbEhkKFAoSCefuR3HwdOiJEetv14kBPQ8DEPwB","types":["street_address"],"name":"CVS PHARMACY #2584"},{"address_components":[{"long_name":"122","short_name":"122","types":["street_number"]},{"long_name":"East Putnam Avenue","short_name":"E Putnam Ave","types":["route"]},{"long_name":"Cos Cob","short_name":"Cos Cob","types":["neighborhood","political"]},{"long_name":"Greenwich","short_name":"Greenwich","types":["locality","political"]},{"long_name":"Fairfield County","short_name":"Fairfield County","types":["administrative_area_level_2","political"]},{"long_name":"Connecticut","short_name":"CT","types":["administrative_area_level_1","political"]},{"long_name":"United States","short_name":"US","types":["country","political"]},{"long_name":"06807","short_name":"06807","types":["postal_code"]}],"formatted_address":"122 E Putnam Ave, Cos Cob, CT 06807, USA","geometry":{"location":{"lat":41.0375409,"lng":-73.601034},"location_type":"ROOFTOP","viewport":{"northeast":{"lat":41.0388898802915,"lng":-73.59968501970849},"southwest":{"lat":41.0361919197085,"lng":-73.6023829802915}}},"partial_match":true,"place_id":"ChIJpVs3gouYwokR-FTERixgt68","plus_code":{"compound_code":"29QX+2H Greenwich, Connecticut, United States","global_code":"87H829QX+2H"},"types":["street_address"],"name":"CVS PHARMACY #2475"},{"address_components":[{"long_name":"905","short_name":"905","types":["street_number"]},{"long_name":"South Main Street","short_name":"S Main St","types":["route"]},{"long_name":"Cheshire","short_name":"Cheshire","types":["locality","political"]},{"long_name":"New Haven County","short_name":"New Haven County","types":["administrative_area_level_2","political"]},{"long_name":"Connecticut","short_name":"CT","types":["administrative_area_level_1","political"]},{"long_name":"United States","short_name":"US","types":["country","political"]},{"long_name":"06410","short_name":"06410","types":["postal_code"]},{"long_name":"3418","short_name":"3418","types":["postal_code_suffix"]}],"formatted_address":"905 S Main St, Cheshire, CT 06410, USA","geometry":{"bounds":{"northeast":{"lat":41.480565,"lng":-72.90622189999999},"southwest":{"lat":41.4802525,"lng":-72.9067694}},"location":{"lat":41.4804578,"lng":-72.9065179},"location_type":"ROOFTOP","viewport":{"northeast":{"lat":41.4817577302915,"lng":-72.9051466697085},"southwest":{"lat":41.4790597697085,"lng":-72.9078446302915}}},"partial_match":true,"place_id":"ChIJSYjxDfPF54kRR95hkGNwHCg","types":["premise"],"name":"CVS PHARMACY #1148"},{"address_components":[{"long_name":"467","short_name":"467","types":["street_number"]},{"long_name":"Main Street","short_name":"Main St","types":["route"]},{"long_name":"Ridgefield","short_name":"Ridgefield","types":["locality","political"]},{"long_name":"Fairfield County","short_name":"Fairfield County","types":["administrative_area_level_2","political"]},{"long_name":"Connecticut","short_name":"CT","types":["administrative_area_level_1","political"]},{"long_name":"United States","short_name":"US","types":["country","political"]},{"long_name":"06877","short_name":"06877","types":["postal_code"]},{"long_name":"4560","short_name":"4560","types":["postal_code_suffix"]}],"formatted_address":"467 Main St, Ridgefield, CT 06877, USA","geometry":{"location":{"lat":41.2828636,"lng":-73.4997751},"location_type":"ROOFTOP","viewport":{"northeast":{"lat":41.2842125802915,"lng":-73.49842611970848},"southwest":{"lat":41.2815146197085,"lng":-73.5011240802915}}},"partial_match":true,"place_id":"ChIJZ3vknCWqwokRJzjvtCGReU4","plus_code":{"compound_code":"7GM2+43 Ridgefield, Connecticut, United States","global_code":"87H87GM2+43"},"types":["street_address"],"name":"CVS PHARMACY #738"},{"address_components":[{"long_name":"359","short_name":"359","types":["street_number"]},{"long_name":"Main Street","short_name":"Main St","types":["route"]},{"long_name":"Southington","short_name":"Southington","types":["locality","political"]},{"long_name":"Hartford County","short_name":"Hartford County","types":["administrative_area_level_2","political"]},{"long_name":"Connecticut","short_name":"CT","types":["administrative_area_level_1","political"]},{"long_name":"United States","short_name":"US","types":["country","political"]},{"long_name":"06489","short_name":"06489","types":["postal_code"]},{"long_name":"2509","short_name":"2509","types":["postal_code_suffix"]}],"formatted_address":"359 Main St, Southington, CT 06489, USA","geometry":{"bounds":{"northeast":{"lat":41.5938746,"lng":-72.8795073},"southwest":{"lat":41.5934719,"lng":-72.8800907}},"location":{"lat":41.5936948,"lng":-72.879886},"location_type":"ROOFTOP","viewport":{"northeast":{"lat":41.5950222302915,"lng":-72.87845001970848},"southwest":{"lat":41.5923242697085,"lng":-72.8811479802915}}},"partial_match":true,"place_id":"ChIJhU8eYZS354kRyp6sqyueoOk","types":["premise"],"name":"WALGREENS #07641"},{"address_components":[{"long_name":"146","short_name":"146","types":["street_number"]},{"long_name":"South Street","short_name":"South St","types":["route"]},{"long_name":"Danbury","short_name":"Danbury","types":["locality","political"]},{"long_name":"Fairfield County","short_name":"Fairfield County","types":["administrative_area_level_2","political"]},{"long_name":"Connecticut","short_name":"CT","types":["administrative_area_level_1","political"]},{"long_name":"United States","short_name":"US","types":["country","political"]},{"long_name":"06810","short_name":"06810","types":["postal_code"]},{"long_name":"7951","short_name":"7951","types":["postal_code_suffix"]}],"formatted_address":"146 South St, Danbury, CT 06810, USA","geometry":{"bounds":{"northeast":{"lat":41.3857727,"lng":-73.4438795},"southwest":{"lat":41.3853211,"lng":-73.4443424}},"location":{"lat":41.3855538,"lng":-73.4441166},"location_type":"ROOFTOP","viewport":{"northeast":{"lat":41.3868958802915,"lng":-73.44276196970849},"southwest":{"lat":41.3841979197085,"lng":-73.4454599302915}}},"partial_match":true,"place_id":"ChIJHRK6DnX_54kRsv9GUKtakYM","types":["premise"],"name":"CVS PHARMACY #629"},{"address_components":[{"long_name":"98","short_name":"98","types":["street_number"]},{"long_name":"Bridge Street","short_name":"Bridge St","types":["route"]},{"long_name":"Naugatuck","short_name":"Naugatuck","types":["locality","political"]},{"long_name":"New Haven County","short_name":"New Haven County","types":["administrative_area_level_2","political"]},{"long_name":"Connecticut","short_name":"CT","types":["administrative_area_level_1","political"]},{"long_name":"United States","short_name":"US","types":["country","political"]},{"long_name":"06770","short_name":"06770","types":["postal_code"]}],"formatted_address":"98 Bridge St, Naugatuck, CT 06770, USA","geometry":{"bounds":{"northeast":{"lat":41.5018352,"lng":-73.0526689},"southwest":{"lat":41.5013956,"lng":-73.0532618}},"location":{"lat":41.5016471,"lng":-73.05300679999999},"location_type":"ROOFTOP","viewport":{"northeast":{"lat":41.50296438029149,"lng":-73.0516163697085},"southwest":{"lat":41.5002664197085,"lng":-73.0543143302915}}},"partial_match":true,"place_id":"ChIJWU8TGjjC54kRMvlg2S6WqwI","types":["premise"],"name":"CVS PHARMACY #124"},{"address_components":[{"long_name":"125","short_name":"125","types":["street_number"]},{"long_name":"Bridgton Road","short_name":"Bridgton Rd","types":["route"]},{"long_name":"Westbrook","short_name":"Westbrook","types":["locality","political"]},{"long_name":"Maine","short_name":"ME","types":["administrative_area_level_1","political"]},{"long_name":"United States","short_name":"US","types":["country","political"]},{"long_name":"04092","short_name":"04092","types":["postal_code"]}],"formatted_address":"3759, 125 Bridgton Rd, Westbrook, ME 04092, United States","geometry":{"location":{"lat":43.707031,"lng":-70.327206},"location_type":"ROOFTOP","viewport":{"northeast":{"lat":43.7083799802915,"lng":-70.32585701970851},"southwest":{"lat":43.7056820197085,"lng":-70.32855498029151}}},"partial_match":true,"place_id":"ChIJ206CzeqaskwRXQtb8le9eTU","plus_code":{"compound_code":"PM4F+R4 Westbrook, Maine, United States","global_code":"87MFPM4F+R4"},"types":["bakery","establishment","food","liquor_store","point_of_interest","restaurant","store"],"name":"WALGREENS #17767"},{"address_components":[{"long_name":"164","short_name":"164","types":["street_number"]},{"long_name":"Danbury Road","short_name":"Danbury Rd","types":["route"]},{"long_name":"New Milford","short_name":"New Milford","types":["locality","political"]},{"long_name":"Litchfield County","short_name":"Litchfield County","types":["administrative_area_level_2","political"]},{"long_name":"Connecticut","short_name":"CT","types":["administrative_area_level_1","political"]},{"long_name":"United States","short_name":"US","types":["country","political"]},{"long_name":"06776","short_name":"06776","types":["postal_code"]}],"formatted_address":"164 Danbury Rd, New Milford, CT 06776, USA","geometry":{"location":{"lat":41.5519978,"lng":-73.4196939},"location_type":"ROOFTOP","viewport":{"northeast":{"lat":41.55334678029149,"lng":-73.4183449197085},"southwest":{"lat":41.5506488197085,"lng":-73.42104288029151}}},"place_id":"ChIJZ39sPl_254kR1M5aZf_I6ks","plus_code":{"compound_code":"HH2J+Q4 New Milford, Connecticut, United States","global_code":"87H8HH2J+Q4"},"types":["department_store","establishment","food","grocery_or_supermarket","point_of_interest","store","supermarket"],"name":"WAL-MART STORE #3546"},{"address_components":[{"long_name":"44","short_name":"44","types":["street_number"]},{"long_name":"Prospect Hill Road","short_name":"Prospect Hill Rd","types":["route"]},{"long_name":"East Windsor","short_name":"East Windsor","types":["locality","political"]},{"long_name":"Hartford County","short_name":"Hartford County","types":["administrative_area_level_2","political"]},{"long_name":"Connecticut","short_name":"CT","types":["administrative_area_level_1","political"]},{"long_name":"United States","short_name":"US","types":["country","political"]},{"long_name":"06088","short_name":"06088","types":["postal_code"]},{"long_name":"3600","short_name":"3600","types":["postal_code_suffix"]}],"formatted_address":"44 Prospect Hill Rd, East Windsor, CT 06088, USA","geometry":{"bounds":{"northeast":{"lat":41.9201671,"lng":-72.6058796},"southwest":{"lat":41.91857,"lng":-72.6075107}},"location":{"lat":41.91940520000001,"lng":-72.6068008},"location_type":"ROOFTOP","viewport":{"northeast":{"lat":41.9207175302915,"lng":-72.60534616970848},"southwest":{"lat":41.9180195697085,"lng":-72.6080441302915}}},"partial_match":true,"place_id":"ChIJD4Q2Wvz75okR2K8HqgnpQhA","types":["premise"],"name":"WAL-MART #2282"},{"address_components":[{"long_name":"668","short_name":"668","types":["street_number"]},{"long_name":"Farmington Avenue","short_name":"Farmington Ave","types":["route"]},{"long_name":"West Hartford","short_name":"West Hartford","types":["locality","political"]},{"long_name":"Hartford County","short_name":"Hartford County","types":["administrative_area_level_2","political"]},{"long_name":"Connecticut","short_name":"CT","types":["administrative_area_level_1","political"]},{"long_name":"United States","short_name":"US","types":["country","political"]},{"long_name":"06119","short_name":"06119","types":["postal_code"]}],"formatted_address":"668 Farmington Ave, West Hartford, CT 06119, USA","geometry":{"location":{"lat":41.765904,"lng":-72.7167994},"location_type":"ROOFTOP","viewport":{"northeast":{"lat":41.7672529802915,"lng":-72.71545041970849},"southwest":{"lat":41.7645550197085,"lng":-72.71814838029151}}},"partial_match":true,"place_id":"ChIJKQWSa7Gs54kRATgfxR8SDk0","plus_code":{"compound_code":"Q78M+97 West Hartford, Connecticut, United States","global_code":"87H9Q78M+97"},"types":["street_address"],"name":"WALGREENS #15207"},{"address_components":[{"long_name":"1387","short_name":"1387","types":["street_number"]},{"long_name":"New Haven Avenue","short_name":"New Haven Ave","types":["route"]},{"long_name":"Milford","short_name":"Milford","types":["locality","political"]},{"long_name":"New Haven County","short_name":"New Haven County","types":["administrative_area_level_2","political"]},{"long_name":"Connecticut","short_name":"CT","types":["administrative_area_level_1","political"]},{"long_name":"United States","short_name":"US","types":["country","political"]},{"long_name":"06460","short_name":"06460","types":["postal_code"]}],"formatted_address":"1387 New Haven Ave, Milford, CT 06460, USA","geometry":{"location":{"lat":41.2276882,"lng":-72.9963452},"location_type":"ROOFTOP","viewport":{"northeast":{"lat":41.22903718029149,"lng":-72.9949962197085},"southwest":{"lat":41.22633921970849,"lng":-72.9976941802915}}},"place_id":"ChIJN9PW1id06IkRisE7z5VlWF4","plus_code":{"compound_code":"62H3+3F Milford, Connecticut, United States","global_code":"87H962H3+3F"},"types":["convenience_store","establishment","food","health","point_of_interest","store"],"name":"RITE AID  #10367"},{"address_components":[{"long_name":"44","short_name":"44","types":["street_number"]},{"long_name":"Fenn Road","short_name":"Fenn Rd","types":["route"]},{"long_name":"Newington","short_name":"Newington","types":["locality","political"]},{"long_name":"Hartford County","short_name":"Hartford County","types":["administrative_area_level_2","political"]},{"long_name":"Connecticut","short_name":"CT","types":["administrative_area_level_1","political"]},{"long_name":"United States","short_name":"US","types":["country","political"]},{"long_name":"06111","short_name":"06111","types":["postal_code"]}],"formatted_address":"44 Fenn Rd, Newington, CT 06111, USA","geometry":{"bounds":{"northeast":{"lat":41.6980205,"lng":-72.7540925},"southwest":{"lat":41.6970247,"lng":-72.7551366}},"location":{"lat":41.6975165,"lng":-72.754509},"location_type":"ROOFTOP","viewport":{"northeast":{"lat":41.6988715802915,"lng":-72.7532655697085},"southwest":{"lat":41.6961736197085,"lng":-72.75596353029151}}},"partial_match":true,"place_id":"ChIJr5WCeYiy54kRv9nwr5jw8Yk","types":["subpremise"],"name":"STOP & SHOP #630"},{"address_components":[{"long_name":"138","short_name":"138","types":["street_number"]},{"long_name":"Heights Road","short_name":"Heights Rd","types":["route"]},{"long_name":"Darien","short_name":"Darien","types":["locality","political"]},{"long_name":"Fairfield County","short_name":"Fairfield County","types":["administrative_area_level_2","political"]},{"long_name":"Connecticut","short_name":"CT","types":["administrative_area_level_1","political"]},{"long_name":"United States","short_name":"US","types":["country","political"]},{"long_name":"06820","short_name":"06820","types":["postal_code"]},{"long_name":"4119","short_name":"4119","types":["postal_code_suffix"]}],"formatted_address":"138 Heights Rd, Darien, CT 06820, USA","geometry":{"location":{"lat":41.0702276,"lng":-73.4937519},"location_type":"ROOFTOP","viewport":{"northeast":{"lat":41.0715765802915,"lng":-73.49240291970851},"southwest":{"lat":41.0688786197085,"lng":-73.49510088029152}}},"partial_match":true,"place_id":"ChIJza0vmlygwokRx_jJIwoIJcY","plus_code":{"compound_code":"3GC4+3F Darien, Oyster Bay, CT, United States","global_code":"87H83GC4+3F"},"types":["street_address"],"name":"WALGREENS #01873"},{"address_components":[{"long_name":"940","short_name":"940","types":["street_number"]},{"long_name":"Quaker Lane South","short_name":"Quaker Ln S","types":["route"]},{"long_name":"West Hartford","short_name":"West Hartford","types":["locality","political"]},{"long_name":"Hartford County","short_name":"Hartford County","types":["administrative_area_level_2","political"]},{"long_name":"Connecticut","short_name":"CT","types":["administrative_area_level_1","political"]},{"long_name":"United States","short_name":"US","types":["country","political"]},{"long_name":"06110","short_name":"06110","types":["postal_code"]},{"long_name":"1458","short_name":"1458","types":["postal_code_suffix"]}],"formatted_address":"940 Quaker Ln S, West Hartford, CT 06110, USA","geometry":{"bounds":{"northeast":{"lat":41.7333537,"lng":-72.7304159},"southwest":{"lat":41.7330154,"lng":-72.7309637}},"location":{"lat":41.7331702,"lng":-72.73063590000001},"location_type":"ROOFTOP","viewport":{"northeast":{"lat":41.73453353029149,"lng":-72.7293408197085},"southwest":{"lat":41.73183556970849,"lng":-72.7320387802915}}},"partial_match":true,"place_id":"ChIJpdbl1iKt54kRv4oYM1RWKSQ","types":["premise"],"name":"WALGREENS #07750"},{"address_components":[{"long_name":"281","short_name":"281","types":["street_number"]},{"long_name":"Connecticut Avenue","short_name":"Connecticut Ave","types":["route"]},{"long_name":"Norwalk","short_name":"Norwalk","types":["locality","political"]},{"long_name":"Fairfield County","short_name":"Fairfield County","types":["administrative_area_level_2","political"]},{"long_name":"Connecticut","short_name":"CT","types":["administrative_area_level_1","political"]},{"long_name":"United States","short_name":"US","types":["country","political"]},{"long_name":"06854","short_name":"06854","types":["postal_code"]},{"long_name":"1938","short_name":"1938","types":["postal_code_suffix"]}],"formatted_address":"281 Connecticut Ave, Norwalk, CT 06854, USA","geometry":{"bounds":{"northeast":{"lat":41.1026694,"lng":-73.4346418},"southwest":{"lat":41.1022396,"lng":-73.4352455}},"location":{"lat":41.1024335,"lng":-73.4349146},"location_type":"ROOFTOP","viewport":{"northeast":{"lat":41.1038034802915,"lng":-73.4335946697085},"southwest":{"lat":41.1011055197085,"lng":-73.4362926302915}}},"partial_match":true,"place_id":"ChIJC6-gZnEe6IkRrIRCARkz1V4","types":["premise"],"name":"CVS PHARMACY #7856"},{"address_components":[{"long_name":"149","short_name":"149","types":["street_number"]},{"long_name":"Deming Street","short_name":"Deming St","types":["route"]},{"long_name":"Manchester","short_name":"Manchester","types":["locality","political"]},{"long_name":"Manchester","short_name":"Manchester","types":["administrative_area_level_3","political"]},{"long_name":"Hartford County","short_name":"Hartford County","types":["administrative_area_level_2","political"]},{"long_name":"Connecticut","short_name":"CT","types":["administrative_area_level_1","political"]},{"long_name":"United States","short_name":"US","types":["country","political"]},{"long_name":"06042","short_name":"06042","types":["postal_code"]}],"formatted_address":"149 Deming St, Manchester, CT 06042, USA","geometry":{"bounds":{"northeast":{"lat":41.8140156,"lng":-72.52471},"southwest":{"lat":41.8135623,"lng":-72.52529439999999}},"location":{"lat":41.8137286,"lng":-72.5248767},"location_type":"ROOFTOP","viewport":{"northeast":{"lat":41.8151379302915,"lng":-72.52365321970849},"southwest":{"lat":41.81243996970851,"lng":-72.5263511802915}}},"partial_match":true,"place_id":"ChIJhd755_ZX5okRSYLHV5keTtY","types":["premise"],"name":"WALGREENS  #06654"},{"address_components":[{"long_name":"327","short_name":"327","types":["street_number"]},{"long_name":"Main Avenue","short_name":"Main Ave","types":["route"]},{"long_name":"Norwalk","short_name":"Norwalk","types":["locality","political"]},{"long_name":"Fairfield County","short_name":"Fairfield County","types":["administrative_area_level_2","political"]},{"long_name":"Connecticut","short_name":"CT","types":["administrative_area_level_1","political"]},{"long_name":"United States","short_name":"US","types":["country","political"]},{"long_name":"06851","short_name":"06851","types":["postal_code"]},{"long_name":"6156","short_name":"6156","types":["postal_code_suffix"]}],"formatted_address":"327 Main Ave, Norwalk, CT 06851, USA","geometry":{"bounds":{"northeast":{"lat":41.1370053,"lng":-73.4249687},"southwest":{"lat":41.1358695,"lng":-73.4257128}},"location":{"lat":41.1365648,"lng":-73.42529549999999},"location_type":"ROOFTOP","viewport":{"northeast":{"lat":41.13778638029149,"lng":-73.4239917697085},"southwest":{"lat":41.1350884197085,"lng":-73.4266897302915}}},"partial_match":true,"place_id":"ChIJ4a8n57Ed6IkRinDlUq6j6XY","types":["premise"],"name":"CVS PHARMACY #854"},{"address_components":[{"long_name":"1309","short_name":"1309","types":["street_number"]},{"long_name":"Corbin Avenue","short_name":"Corbin Ave","types":["route"]},{"long_name":"New Britain","short_name":"New Britain","types":["locality","political"]},{"long_name":"Hartford County","short_name":"Hartford County","types":["administrative_area_level_2","political"]},{"long_name":"Connecticut","short_name":"CT","types":["administrative_area_level_1","political"]},{"long_name":"United States","short_name":"US","types":["country","political"]},{"long_name":"06053","short_name":"06053","types":["postal_code"]},{"long_name":"3807","short_name":"3807","types":["postal_code_suffix"]}],"formatted_address":"1309 Corbin Ave, New Britain, CT 06053, USA","geometry":{"bounds":{"northeast":{"lat":41.6692347,"lng":-72.80436689999999},"southwest":{"lat":41.66849209999999,"lng":-72.8056211}},"location":{"lat":41.6687339,"lng":-72.8048337},"location_type":"ROOFTOP","viewport":{"northeast":{"lat":41.6702123802915,"lng":-72.8036450197085},"southwest":{"lat":41.6675144197085,"lng":-72.8063429802915}}},"place_id":"ChIJLQlxen2x54kRS4Ps7JUvcG8","types":["premise"],"name":"STOP & SHOP PHARMACY #645"},{"address_components":[{"long_name":"60","short_name":"60","types":["street_number"]},{"long_name":"Middle Street","short_name":"Middle St","types":["route"]},{"long_name":"Bristol","short_name":"Bristol","types":["locality","political"]},{"long_name":"Hartford County","short_name":"Hartford County","types":["administrative_area_level_2","political"]},{"long_name":"Connecticut","short_name":"CT","types":["administrative_area_level_1","political"]},{"long_name":"United States","short_name":"US","types":["country","political"]},{"long_name":"06010","short_name":"06010","types":["postal_code"]}],"formatted_address":"60 Middle St, Bristol, CT 06010, USA","geometry":{"bounds":{"northeast":{"lat":41.6673448,"lng":-72.92284160000001},"southwest":{"lat":41.6668996,"lng":-72.92334}},"location":{"lat":41.6670938,"lng":-72.9230852},"location_type":"ROOFTOP","viewport":{"northeast":{"lat":41.66847118029149,"lng":-72.9217418197085},"southwest":{"lat":41.66577321970849,"lng":-72.92443978029151}}},"partial_match":true,"place_id":"ChIJXdCZZT2654kRFbQtXPpEaZ4","types":["premise"],"name":"CVS PHARMACY #5703"},{"address_components":[{"long_name":"266","short_name":"266","types":["street_number"]},{"long_name":"West Street","short_name":"West St","types":["route"]},{"long_name":"Litchfield","short_name":"Litchfield","types":["locality","political"]},{"long_name":"Litchfield","short_name":"Litchfield","types":["administrative_area_level_3","political"]},{"long_name":"Litchfield County","short_name":"Litchfield County","types":["administrative_area_level_2","political"]},{"long_name":"Connecticut","short_name":"CT","types":["administrative_area_level_1","political"]},{"long_name":"United States","short_name":"US","types":["country","political"]},{"long_name":"06759","short_name":"06759","types":["postal_code"]}],"formatted_address":"266 West St, Litchfield, CT 06759, USA","geometry":{"bounds":{"northeast":{"lat":41.7463595,"lng":-73.20129279999999},"southwest":{"lat":41.7460141,"lng":-73.2016264}},"location":{"lat":41.74623649999999,"lng":-73.2015246},"location_type":"ROOFTOP","viewport":{"northeast":{"lat":41.7475357802915,"lng":-73.20011061970848},"southwest":{"lat":41.7448378197085,"lng":-73.2028085802915}}},"partial_match":true,"place_id":"ChIJKx_3ytyQ54kREO-EH0ii_w0","types":["premise"],"name":"CVS PHARMACY #135"},{"address_components":[{"long_name":"698","short_name":"698","types":["street_number"]},{"long_name":"Post Road","short_name":"Post Rd","types":["route"]},{"long_name":"Fairfield","short_name":"Fairfield","types":["locality","political"]},{"long_name":"Fairfield County","short_name":"Fairfield County","types":["administrative_area_level_2","political"]},{"long_name":"Connecticut","short_name":"CT","types":["administrative_area_level_1","political"]},{"long_name":"United States","short_name":"US","types":["country","political"]},{"long_name":"06824","short_name":"06824","types":["postal_code"]},{"long_name":"6247","short_name":"6247","types":["postal_code_suffix"]}],"formatted_address":"698 Post Rd, Fairfield, CT 06824, USA","geometry":{"bounds":{"northeast":{"lat":41.1498287,"lng":-73.2468806},"southwest":{"lat":41.14875019999999,"lng":-73.248156}},"location":{"lat":41.1492163,"lng":-73.2475094},"location_type":"ROOFTOP","viewport":{"northeast":{"lat":41.1506384302915,"lng":-73.2461693197085},"southwest":{"lat":41.1479404697085,"lng":-73.2488672802915}}},"partial_match":true,"place_id":"ChIJ_5UjrDwQ6IkRyRdLh1Pn7Mc","types":["premise"],"name":"CVS PHARMACY #133"},{"address_components":[{"long_name":"60","short_name":"60","types":["street_number"]},{"long_name":"Providence Pike","short_name":"Providence Pike","types":["route"]},{"long_name":"Putnam","short_name":"Putnam","types":["locality","political"]},{"long_name":"Windham County","short_name":"Windham County","types":["administrative_area_level_2","political"]},{"long_name":"Connecticut","short_name":"CT","types":["administrative_area_level_1","political"]},{"long_name":"United States","short_name":"US","types":["country","political"]},{"long_name":"06260","short_name":"06260","types":["postal_code"]}],"formatted_address":"60 Providence Pike, Putnam, CT 06260, USA","geometry":{"bounds":{"northeast":{"lat":41.9279638,"lng":-71.8766832},"southwest":{"lat":41.927004,"lng":-71.8780484}},"location":{"lat":41.9274281,"lng":-71.8773296},"location_type":"ROOFTOP","viewport":{"northeast":{"lat":41.9288328802915,"lng":-71.8760168197085},"southwest":{"lat":41.9261349197085,"lng":-71.8787147802915}}},"partial_match":true,"place_id":"ChIJY3YdU5Im5IkRXW6YQwR-IC0","types":["premise"],"name":"STOP & SHOP PHARMACY #727"},{"address_components":[{"long_name":"436","short_name":"436","types":["street_number"]},{"long_name":"Whalley Avenue","short_name":"Whalley Ave","types":["route"]},{"long_name":"Edgewood","short_name":"Edgewood","types":["neighborhood","political"]},{"long_name":"New Haven","short_name":"New Haven","types":["locality","political"]},{"long_name":"New Haven County","short_name":"New Haven County","types":["administrative_area_level_2","political"]},{"long_name":"Connecticut","short_name":"CT","types":["administrative_area_level_1","political"]},{"long_name":"United States","short_name":"US","types":["country","political"]},{"long_name":"06511","short_name":"06511","types":["postal_code"]},{"long_name":"3012","short_name":"3012","types":["postal_code_suffix"]}],"formatted_address":"436 Whalley Ave, New Haven, CT 06511, USA","geometry":{"bounds":{"northeast":{"lat":41.3185079,"lng":-72.9477986},"southwest":{"lat":41.3180696,"lng":-72.9483721}},"location":{"lat":41.3183954,"lng":-72.9481606},"location_type":"ROOFTOP","viewport":{"northeast":{"lat":41.3196377302915,"lng":-72.94673636970849},"southwest":{"lat":41.3169397697085,"lng":-72.9494343302915}}},"place_id":"ChIJ8w-3xwfZ54kRtaPemaCPcvo","types":["premise"],"name":"WALGREENS #09785"},{"address_components":[{"long_name":"113","short_name":"113","types":["street_number"]},{"long_name":"Mill Plain Road","short_name":"Mill Plain Rd","types":["route"]},{"long_name":"Danbury","short_name":"Danbury","types":["locality","political"]},{"long_name":"Fairfield County","short_name":"Fairfield County","types":["administrative_area_level_2","political"]},{"long_name":"Connecticut","short_name":"CT","types":["administrative_area_level_1","political"]},{"long_name":"United States","short_name":"US","types":["country","political"]},{"long_name":"06811","short_name":"06811","types":["postal_code"]}],"formatted_address":"113 Mill Plain Rd, Danbury, CT 06811, USA","geometry":{"location":{"lat":41.3927,"lng":-73.52174099999999},"location_type":"ROOFTOP","viewport":{"northeast":{"lat":41.39404898029149,"lng":-73.5203920197085},"southwest":{"lat":41.39135101970849,"lng":-73.5230899802915}}},"partial_match":true,"place_id":"ChIJt3-1o_lU3YkRGUiscQ3_uR8","plus_code":{"compound_code":"9FVH+38 Danbury, Connecticut, United States","global_code":"87H89FVH+38"},"types":["street_address"],"name":"RITE AID #10384"},{"address_components":[{"long_name":"969","short_name":"969","types":["street_number"]},{"long_name":"High Ridge Road","short_name":"High Ridge Rd","types":["route"]},{"long_name":"Newfield - Westover - Turn of River","short_name":"Newfield - Westover - Turn of River","types":["neighborhood","political"]},{"long_name":"Stamford","short_name":"Stamford","types":["locality","political"]},{"long_name":"Fairfield County","short_name":"Fairfield County","types":["administrative_area_level_2","political"]},{"long_name":"Connecticut","short_name":"CT","types":["administrative_area_level_1","political"]},{"long_name":"United States","short_name":"US","types":["country","political"]},{"long_name":"06905","short_name":"06905","types":["postal_code"]}],"formatted_address":"969 High Ridge Rd, Stamford, CT 06905, USA","geometry":{"bounds":{"northeast":{"lat":41.1048775,"lng":-73.5476163},"southwest":{"lat":41.1045053,"lng":-73.5479673}},"location":{"lat":41.1046864,"lng":-73.5477913},"location_type":"ROOFTOP","viewport":{"northeast":{"lat":41.1060403802915,"lng":-73.5464428197085},"southwest":{"lat":41.1033424197085,"lng":-73.54914078029151}}},"partial_match":true,"place_id":"ChIJV8Rx4WehwokRIornTkTKFJQ","types":["premise"],"name":"CVS PHARMACY #5881"},{"address_components":[{"long_name":"110","short_name":"110","types":["street_number"]},{"long_name":"East Main Street","short_name":"E Main St","types":["route"]},{"long_name":"Torrington","short_name":"Torrington","types":["locality","political"]},{"long_name":"Litchfield County","short_name":"Litchfield County","types":["administrative_area_level_2","political"]},{"long_name":"Connecticut","short_name":"CT","types":["administrative_area_level_1","political"]},{"long_name":"United States","short_name":"US","types":["country","political"]},{"long_name":"06790","short_name":"06790","types":["postal_code"]}],"formatted_address":"110 E Main St, Torrington, CT 06790, USA","geometry":{"location":{"lat":41.801803,"lng":-73.118607},"location_type":"ROOFTOP","viewport":{"northeast":{"lat":41.8031519802915,"lng":-73.11725801970849},"southwest":{"lat":41.8004540197085,"lng":-73.1199559802915}}},"partial_match":true,"place_id":"ChIJU7ntIfaY54kRQj70IIoMwZE","plus_code":{"compound_code":"RV2J+PH Torrington, Litchfield, CT, United States","global_code":"87H8RV2J+PH"},"types":["street_address"],"name":"PETRICONE'S TORRINGTON PHARMACY"},{"address_components":[{"long_name":"1619","short_name":"1619","types":["street_number"]},{"long_name":"Post Road","short_name":"Post Rd","types":["route"]},{"long_name":"Fairfield","short_name":"Fairfield","types":["locality","political"]},{"long_name":"Fairfield County","short_name":"Fairfield County","types":["administrative_area_level_2","political"]},{"long_name":"Connecticut","short_name":"CT","types":["administrative_area_level_1","political"]},{"long_name":"United States","short_name":"US","types":["country","political"]},{"long_name":"06824","short_name":"06824","types":["postal_code"]}],"formatted_address":"1619 Post Rd, Fairfield, CT 06824, USA","geometry":{"bounds":{"northeast":{"lat":41.1406204,"lng":-73.2600757},"southwest":{"lat":41.140158,"lng":-73.2604901}},"location":{"lat":41.1403732,"lng":-73.26027239999999},"location_type":"ROOFTOP","viewport":{"northeast":{"lat":41.1417381802915,"lng":-73.2589339197085},"southwest":{"lat":41.1390402197085,"lng":-73.2616318802915}}},"partial_match":true,"place_id":"ChIJFws6lWwQ6IkRxvuB3ReCvuw","types":["premise"],"name":"RITE AID  #10386"},{"address_components":[{"long_name":"72","short_name":"72","types":["street_number"]},{"long_name":"Newtown Road","short_name":"Newtown Rd","types":["route"]},{"long_name":"Danbury","short_name":"Danbury","types":["locality","political"]},{"long_name":"Fairfield County","short_name":"Fairfield County","types":["administrative_area_level_2","political"]},{"long_name":"Connecticut","short_name":"CT","types":["administrative_area_level_1","political"]},{"long_name":"United States","short_name":"US","types":["country","political"]},{"long_name":"06810","short_name":"06810","types":["postal_code"]}],"formatted_address":"72 Newtown Rd, Danbury, CT 06810, USA","geometry":{"bounds":{"northeast":{"lat":41.4080756,"lng":-73.41760459999999},"southwest":{"lat":41.4066243,"lng":-73.4199256}},"location":{"lat":41.4072533,"lng":-73.4186656},"location_type":"ROOFTOP","viewport":{"northeast":{"lat":41.4086989302915,"lng":-73.41741611970848},"southwest":{"lat":41.4060009697085,"lng":-73.4201140802915}}},"partial_match":true,"place_id":"ChIJwQiohCf_54kRDhWSvtdL8c4","types":["premise"],"name":"STOP & SHOP PHARMACY #659"},{"address_components":[{"long_name":"370","short_name":"370","types":["street_number"]},{"long_name":"Hemingway Avenue","short_name":"Hemingway Ave","types":["route"]},{"long_name":"The Centre","short_name":"The Centre","types":["neighborhood","political"]},{"long_name":"East Haven","short_name":"East Haven","types":["locality","political"]},{"long_name":"New Haven County","short_name":"New Haven County","types":["administrative_area_level_2","political"]},{"long_name":"Connecticut","short_name":"CT","types":["administrative_area_level_1","political"]},{"long_name":"United States","short_name":"US","types":["country","political"]},{"long_name":"06512","short_name":"06512","types":["postal_code"]},{"long_name":"3240","short_name":"3240","types":["postal_code_suffix"]}],"formatted_address":"370 Hemingway Ave, East Haven, CT 06512, USA","geometry":{"location":{"lat":41.2781601,"lng":-72.8691687},"location_type":"ROOFTOP","viewport":{"northeast":{"lat":41.2795090802915,"lng":-72.86781971970849},"southwest":{"lat":41.2768111197085,"lng":-72.8705176802915}}},"partial_match":true,"place_id":"ChIJw3TnYMfX54kRl6hvEUXMRdU","plus_code":{"compound_code":"74HJ+78 East Haven, Connecticut, United States","global_code":"87H974HJ+78"},"types":["street_address"],"name":"STOP & SHOP PHARMACY #692"},{"address_components":[{"long_name":"102","short_name":"102","types":["street_number"]},{"long_name":"Washington Street","short_name":"Washington St","types":["route"]},{"long_name":"New Britain","short_name":"New Britain","types":["locality","political"]},{"long_name":"Hartford County","short_name":"Hartford County","types":["administrative_area_level_2","political"]},{"long_name":"Connecticut","short_name":"CT","types":["administrative_area_level_1","political"]},{"long_name":"United States","short_name":"US","types":["country","political"]},{"long_name":"06051","short_name":"06051","types":["postal_code"]},{"long_name":"1826","short_name":"1826","types":["postal_code_suffix"]}],"formatted_address":"102 Washington St, New Britain, CT 06051, USA","geometry":{"bounds":{"northeast":{"lat":41.6706503,"lng":-72.7842738},"southwest":{"lat":41.6702573,"lng":-72.7847371}},"location":{"lat":41.67051319999999,"lng":-72.78442799999999},"location_type":"ROOFTOP","viewport":{"northeast":{"lat":41.67180278029149,"lng":-72.78315646970849},"southwest":{"lat":41.66910481970849,"lng":-72.7858544302915}}},"partial_match":true,"place_id":"ChIJzfuppcuz54kRx1_VUGOnACU","types":["premise"],"name":"WALGREENS #07585"},{"address_components":[{"long_name":"37","short_name":"37","types":["street_number"]},{"long_name":"South Broad Street","short_name":"S Broad St","types":["route"]},{"long_name":"Pawcatuck","short_name":"Pawcatuck","types":["neighborhood","political"]},{"long_name":"Stonington","short_name":"Stonington","types":["locality","political"]},{"long_name":"Stonington","short_name":"Stonington","types":["administrative_area_level_3","political"]},{"long_name":"New London County","short_name":"New London County","types":["administrative_area_level_2","political"]},{"long_name":"Connecticut","short_name":"CT","types":["administrative_area_level_1","political"]},{"long_name":"United States","short_name":"US","types":["country","political"]},{"long_name":"06379","short_name":"06379","types":["postal_code"]},{"long_name":"1926","short_name":"1926","types":["postal_code_suffix"]}],"formatted_address":"37 S Broad St, Pawcatuck, CT 06379, USA","geometry":{"bounds":{"northeast":{"lat":41.3758334,"lng":-71.8467553},"southwest":{"lat":41.3752185,"lng":-71.8482697}},"location":{"lat":41.3755064,"lng":-71.8475903},"location_type":"ROOFTOP","viewport":{"northeast":{"lat":41.37687493029149,"lng":-71.8461635197085},"southwest":{"lat":41.3741769697085,"lng":-71.84886148029152}}},"partial_match":true,"place_id":"ChIJQUMyJS_n5YkRYfyAbqm0ueU","types":["premise"],"name":"WALGREENS #17726"},{"address_components":[{"long_name":"130","short_name":"130","types":["street_number"]},{"long_name":"Division Street","short_name":"Division St","types":["route"]},{"long_name":"Derby","short_name":"Derby","types":["locality","political"]},{"long_name":"New Haven County","short_name":"New Haven County","types":["administrative_area_level_2","political"]},{"long_name":"Connecticut","short_name":"CT","types":["administrative_area_level_1","political"]},{"long_name":"United States","short_name":"US","types":["country","political"]},{"long_name":"06418","short_name":"06418","types":["postal_code"]},{"long_name":"1326","short_name":"1326","types":["postal_code_suffix"]}],"formatted_address":"130 Division St, Derby, CT 06418, USA","geometry":{"location":{"lat":41.3350191,"lng":-73.0886199},"location_type":"ROOFTOP","viewport":{"northeast":{"lat":41.33636808029149,"lng":-73.08727091970849},"southwest":{"lat":41.33367011970849,"lng":-73.08996888029151}}},"partial_match":true,"place_id":"ChIJla_I5IHg54kR_vIEuvx1NIg","plus_code":{"compound_code":"8WP6+2H Derby, Connecticut, United States","global_code":"87H88WP6+2H"},"types":["street_address"],"name":"GRIFFIN PHARMACY & GIFTS"},{"address_components":[{"long_name":"2177","short_name":"2177","types":["street_number"]},{"long_name":"Killingly Cmns","short_name":"Killingly Cmns","types":["route"]},{"long_name":"Dayville","short_name":"Dayville","types":["neighborhood","political"]},{"long_name":"Killingly","short_name":"Killingly","types":["locality","political"]},{"long_name":"Windham County","short_name":"Windham County","types":["administrative_area_level_2","political"]},{"long_name":"Connecticut","short_name":"CT","types":["administrative_area_level_1","political"]},{"long_name":"United States","short_name":"US","types":["country","political"]},{"long_name":"06241","short_name":"06241","types":["postal_code"]},{"long_name":"2188","short_name":"2188","types":["postal_code_suffix"]}],"formatted_address":"2177 Killingly Cmns, Dayville, CT 06241, USA","geometry":{"location":{"lat":41.83716039999999,"lng":-71.877703},"location_type":"ROOFTOP","viewport":{"northeast":{"lat":41.83850938029149,"lng":-71.87635401970849},"southwest":{"lat":41.8358114197085,"lng":-71.87905198029151}}},"partial_match":true,"place_id":"ChIJgVJ99iAp5IkRKIg71aT16aA","plus_code":{"compound_code":"R4PC+VW Killingly, Connecticut, United States","global_code":"87HCR4PC+VW"},"types":["street_address"],"name":"CVS PHARMACY #17489"},{"address_components":[{"long_name":"1030","short_name":"1030","types":["street_number"]},{"long_name":"Barnum Avenue","short_name":"Barnum Ave","types":["route"]},{"long_name":"Stratford","short_name":"Stratford","types":["locality","political"]},{"long_name":"Fairfield County","short_name":"Fairfield County","types":["administrative_area_level_2","political"]},{"long_name":"Connecticut","short_name":"CT","types":["administrative_area_level_1","political"]},{"long_name":"United States","short_name":"US","types":["country","political"]},{"long_name":"06614","short_name":"06614","types":["postal_code"]},{"long_name":"4902","short_name":"4902","types":["postal_code_suffix"]}],"formatted_address":"1030 Barnum Ave, Stratford, CT 06614, USA","geometry":{"location":{"lat":41.1993953,"lng":-73.1323845},"location_type":"ROOFTOP","viewport":{"northeast":{"lat":41.2007442802915,"lng":-73.1310355197085},"southwest":{"lat":41.1980463197085,"lng":-73.13373348029151}}},"partial_match":true,"place_id":"ChIJ64BwCvUM6IkR1X7ezCHr3jU","plus_code":{"compound_code":"5VX9+Q2 Stratford, Connecticut, United States","global_code":"87H85VX9+Q2"},"types":["street_address"],"name":"ROTARY DRUG"},{"address_components":[{"long_name":"266","short_name":"266","types":["street_number"]},{"long_name":"East Main Street","short_name":"E Main St","types":["route"]},{"long_name":"Clinton","short_name":"Clinton","types":["locality","political"]},{"long_name":"Middlesex County","short_name":"Middlesex County","types":["administrative_area_level_2","political"]},{"long_name":"Connecticut","short_name":"CT","types":["administrative_area_level_1","political"]},{"long_name":"United States","short_name":"US","types":["country","political"]},{"long_name":"06413","short_name":"06413","types":["postal_code"]},{"long_name":"2254","short_name":"2254","types":["postal_code_suffix"]}],"formatted_address":"266 E Main St, Clinton, CT 06413, USA","geometry":{"location":{"lat":41.2703251,"lng":-72.5012198},"location_type":"ROOFTOP","viewport":{"northeast":{"lat":41.2716740802915,"lng":-72.49987081970849},"southwest":{"lat":41.2689761197085,"lng":-72.50256878029151}}},"partial_match":true,"place_id":"ChIJr-SojA0m5okRpUrOvjdsyfo","plus_code":{"compound_code":"7FCX+4G Clinton, Connecticut, United States","global_code":"87H97FCX+4G"},"types":["street_address"],"name":"SHOPRITE PHARMACY OF CLINTON"},{"address_components":[{"long_name":"657","short_name":"657","types":["street_number"]},{"long_name":"Silas Deane Highway","short_name":"Silas Deane Hwy","types":["route"]},{"long_name":"Wethersfield","short_name":"Wethersfield","types":["locality","political"]},{"long_name":"Hartford County","short_name":"Hartford County","types":["administrative_area_level_2","political"]},{"long_name":"Connecticut","short_name":"CT","types":["administrative_area_level_1","political"]},{"long_name":"United States","short_name":"US","types":["country","political"]},{"long_name":"06109","short_name":"06109","types":["postal_code"]}],"formatted_address":"657 Silas Deane Hwy, Wethersfield, CT 06109, USA","geometry":{"bounds":{"northeast":{"lat":41.7068821,"lng":-72.6622526},"southwest":{"lat":41.7064715,"lng":-72.6628401}},"location":{"lat":41.7067289,"lng":-72.6625494},"location_type":"ROOFTOP","viewport":{"northeast":{"lat":41.7080257802915,"lng":-72.6611973697085},"southwest":{"lat":41.7053278197085,"lng":-72.66389533029151}}},"partial_match":true,"place_id":"ChIJnamy4YlS5okRnh9QJogwgSc","types":["premise"],"name":"RITE AID  #10347"},{"address_components":[{"long_name":"428","short_name":"428","types":["street_number"]},{"long_name":"Columbus Avenue","short_name":"Columbus Ave","types":["route"]},{"long_name":"The Hill","short_name":"The Hill","types":["neighborhood","political"]},{"long_name":"New Haven","short_name":"New Haven","types":["locality","political"]},{"long_name":"New Haven County","short_name":"New Haven County","types":["administrative_area_level_2","political"]},{"long_name":"Connecticut","short_name":"CT","types":["administrative_area_level_1","political"]},{"long_name":"United States","short_name":"US","types":["country","political"]},{"long_name":"06519","short_name":"06519","types":["postal_code"]}],"formatted_address":"428 Columbus Ave, New Haven, CT 06519, USA","geometry":{"location":{"lat":41.29737129999999,"lng":-72.9397398},"location_type":"ROOFTOP","viewport":{"northeast":{"lat":41.29872028029149,"lng":-72.93839081970849},"southwest":{"lat":41.29602231970849,"lng":-72.94108878029151}}},"place_id":"ChIJr6ZyF1rY54kRmr9wkoyOIsE","plus_code":{"compound_code":"73W6+W4 New Haven, Connecticut, United States","global_code":"87H973W6+W4"},"types":["street_address"],"name":"CORNELL SCOTT - HILL HEALTH CENTER PHARMACY"},{"address_components":[{"long_name":"180","short_name":"180","types":["street_number"]},{"long_name":"Main Street","short_name":"Main St","types":["route"]},{"long_name":"Cheshire Village","short_name":"Cheshire Village","types":["neighborhood","political"]},{"long_name":"Cheshire","short_name":"Cheshire","types":["locality","political"]},{"long_name":"New Haven County","short_name":"New Haven County","types":["administrative_area_level_2","political"]},{"long_name":"Connecticut","short_name":"CT","types":["administrative_area_level_1","political"]},{"long_name":"United States","short_name":"US","types":["country","political"]},{"long_name":"06410","short_name":"06410","types":["postal_code"]},{"long_name":"2406","short_name":"2406","types":["postal_code_suffix"]}],"formatted_address":"180 Main St, Cheshire, CT 06410, USA","geometry":{"bounds":{"northeast":{"lat":41.5038339,"lng":-72.9029858},"southwest":{"lat":41.5033194,"lng":-72.9035662}},"location":{"lat":41.5035066,"lng":-72.9031447},"location_type":"ROOFTOP","viewport":{"northeast":{"lat":41.50492563029149,"lng":-72.9019270197085},"southwest":{"lat":41.5022276697085,"lng":-72.9046249802915}}},"partial_match":true,"place_id":"ChIJzSOp6gPG54kRdOCuSnzkjnw","types":["premise"],"name":"RITE AID  #1087"},{"address_components":[{"long_name":"STE A-2","short_name":"STE A-2","types":["subpremise"]},{"long_name":"287","short_name":"287","types":["street_number"]},{"long_name":"Main Street","short_name":"Main St","types":["route"]},{"long_name":"East Hartford","short_name":"East Hartford","types":["locality","political"]},{"long_name":"Hartford County","short_name":"Hartford County","types":["administrative_area_level_2","political"]},{"long_name":"Connecticut","short_name":"CT","types":["administrative_area_level_1","political"]},{"long_name":"United States","short_name":"US","types":["country","political"]},{"long_name":"06118","short_name":"06118","types":["postal_code"]}],"formatted_address":"287 Main St STE A-2, East Hartford, CT 06118, USA","geometry":{"location":{"lat":41.7430186,"lng":-72.6329786},"location_type":"ROOFTOP","viewport":{"northeast":{"lat":41.7443675802915,"lng":-72.6316296197085},"southwest":{"lat":41.7416696197085,"lng":-72.63432758029151}}},"partial_match":true,"place_id":"EjJTVEUgQS0yLCAyODcgTWFpbiBTdCwgRWFzdCBIYXJ0Zm9yZCwgQ1QgMDYxMTgsIFVTQSIjGiEKFgoUChIJn2TwX8FT5okR8-fuwo-tcB0SB1NURSBBLTI","types":["subpremise"],"name":"GENOA HEALTHCARE, LLC"},{"address_components":[{"long_name":"1","short_name":"1","types":["street_number"]},{"long_name":"Elm Street","short_name":"Elm St","types":["route"]},{"long_name":"Windsor Locks","short_name":"Windsor Locks","types":["locality","political"]},{"long_name":"Hartford County","short_name":"Hartford County","types":["administrative_area_level_2","political"]},{"long_name":"Connecticut","short_name":"CT","types":["administrative_area_level_1","political"]},{"long_name":"United States","short_name":"US","types":["country","political"]},{"long_name":"06096","short_name":"06096","types":["postal_code"]},{"long_name":"2335","short_name":"2335","types":["postal_code_suffix"]}],"formatted_address":"1 Elm St, Windsor Locks, CT 06096, USA","geometry":{"bounds":{"northeast":{"lat":41.9255514,"lng":-72.6283052},"southwest":{"lat":41.9251277,"lng":-72.6289194}},"location":{"lat":41.9252659,"lng":-72.6285115},"location_type":"ROOFTOP","viewport":{"northeast":{"lat":41.92668853029149,"lng":-72.62726331970849},"southwest":{"lat":41.92399056970849,"lng":-72.62996128029151}}},"partial_match":true,"place_id":"ChIJuxeDaRv85okRUmdGGJQCNoQ","types":["premise"],"name":"WALGREENS #09746"},{"address_components":[{"long_name":"601","short_name":"601","types":["street_number"]},{"long_name":"Connecticut 32","short_name":"CT-32","types":["route"]},{"long_name":"North Franklin","short_name":"North Franklin","types":["neighborhood","political"]},{"long_name":"Franklin","short_name":"Franklin","types":["locality","political"]},{"long_name":"New London County","short_name":"New London County","types":["administrative_area_level_2","political"]},{"long_name":"Connecticut","short_name":"CT","types":["administrative_area_level_1","political"]},{"long_name":"United States","short_name":"US","types":["country","political"]},{"long_name":"06254","short_name":"06254","types":["postal_code"]}],"formatted_address":"601 CT-32, North Franklin, CT 06254, USA","geometry":{"location":{"lat":41.62079,"lng":-72.15379999999999},"location_type":"ROOFTOP","viewport":{"northeast":{"lat":41.6221389802915,"lng":-72.15245101970848},"southwest":{"lat":41.6194410197085,"lng":-72.1551489802915}}},"partial_match":true,"place_id":"ChIJOZaDg1pl5okREx_PUpSHzGQ","plus_code":{"compound_code":"JRCW+8F Franklin, Connecticut, United States","global_code":"87H9JRCW+8F"},"types":["street_address"],"name":"WALGREENS #19888"},{"address_components":[{"long_name":"1156","short_name":"1156","types":["street_number"]},{"long_name":"Albany Avenue","short_name":"Albany Ave","types":["route"]},{"long_name":"Upper Albany","short_name":"Upper Albany","types":["neighborhood","political"]},{"long_name":"Hartford","short_name":"Hartford","types":["locality","political"]},{"long_name":"Hartford County","short_name":"Hartford County","types":["administrative_area_level_2","political"]},{"long_name":"Connecticut","short_name":"CT","types":["administrative_area_level_1","political"]},{"long_name":"United States","short_name":"US","types":["country","political"]},{"long_name":"06112","short_name":"06112","types":["postal_code"]}],"formatted_address":"1156 Albany Ave, Hartford, CT 06112, USA","geometry":{"location":{"lat":41.7821448,"lng":-72.6956261},"location_type":"ROOFTOP","viewport":{"northeast":{"lat":41.78349378029149,"lng":-72.69427711970849},"southwest":{"lat":41.78079581970849,"lng":-72.69697508029151}}},"partial_match":true,"place_id":"ChIJ4bOIsKVU5okRM4cFOo2Gvl4","plus_code":{"compound_code":"Q8J3+VP Hartford, Connecticut, United States","global_code":"87H9Q8J3+VP"},"types":["street_address"],"name":"KURE RX"},{"address_components":[{"long_name":"77","short_name":"77","types":["street_number"]},{"long_name":"Westcott Road","short_name":"Westcott Rd","types":["route"]},{"long_name":"Danielson","short_name":"Danielson","types":["neighborhood","political"]},{"long_name":"Killingly","short_name":"Killingly","types":["locality","political"]},{"long_name":"Windham County","short_name":"Windham County","types":["administrative_area_level_2","political"]},{"long_name":"Connecticut","short_name":"CT","types":["administrative_area_level_1","political"]},{"long_name":"United States","short_name":"US","types":["country","political"]},{"long_name":"06239","short_name":"06239","types":["postal_code"]},{"long_name":"2929","short_name":"2929","types":["postal_code_suffix"]}],"formatted_address":"77 Westcott Rd, Danielson, CT 06239, USA","geometry":{"location":{"lat":41.80893529999999,"lng":-71.8753641},"location_type":"RANGE_INTERPOLATED","viewport":{"northeast":{"lat":41.81028428029149,"lng":-71.87401511970849},"southwest":{"lat":41.8075863197085,"lng":-71.8767130802915}}},"partial_match":true,"place_id":"Eig3NyBXZXN0Y290dCBSZCwgRGFuaWVsc29uLCBDVCAwNjIzOSwgVVNBIhoSGAoUChIJYaqHslwp5IkR3odDvlc1WSkQTQ","types":["street_address"],"name":"DANIELSON PHARMACY"},{"address_components":[{"long_name":"Suite G122","short_name":"Suite G122","types":["subpremise"]},{"long_name":"One","short_name":"One","types":["street_number"]},{"long_name":"Hospital Plaza","short_name":"Hospital Plaza","types":["route"]},{"long_name":"Newfield - Westover - Turn of River","short_name":"Newfield - Westover - Turn of River","types":["neighborhood","political"]},{"long_name":"Stamford","short_name":"Stamford","types":["locality","political"]},{"long_name":"Fairfield County","short_name":"Fairfield County","types":["administrative_area_level_2","political"]},{"long_name":"Connecticut","short_name":"CT","types":["administrative_area_level_1","political"]},{"long_name":"United States","short_name":"US","types":["country","political"]},{"long_name":"06902","short_name":"06902","types":["postal_code"]}],"formatted_address":"One Hospital Plaza Suite G122, Stamford, CT 06902, USA","geometry":{"location":{"lat":41.055398,"lng":-73.552331},"location_type":"ROOFTOP","viewport":{"northeast":{"lat":41.0567469802915,"lng":-73.5509820197085},"southwest":{"lat":41.0540490197085,"lng":-73.5536799802915}}},"place_id":"ChIJw-m5jvmhwokRTs8dVCA1Uw4","plus_code":{"compound_code":"3C4X+53 Stamford, Connecticut, United States","global_code":"87H83C4X+53"},"types":["establishment","health","pharmacy","point_of_interest","store"],"name":"WALGREENS # 16549"},{"address_components":[{"long_name":"425","short_name":"425","types":["street_number"]},{"long_name":"West Main Street","short_name":"W Main St","types":["route"]},{"long_name":"Meriden","short_name":"Meriden","types":["locality","political"]},{"long_name":"New Haven County","short_name":"New Haven County","types":["administrative_area_level_2","political"]},{"long_name":"Connecticut","short_name":"CT","types":["administrative_area_level_1","political"]},{"long_name":"United States","short_name":"US","types":["country","political"]},{"long_name":"06451","short_name":"06451","types":["postal_code"]},{"long_name":"3816","short_name":"3816","types":["postal_code_suffix"]}],"formatted_address":"425 W Main St, Meriden, CT 06451, USA","geometry":{"bounds":{"northeast":{"lat":41.5407196,"lng":-72.8172319},"southwest":{"lat":41.5402664,"lng":-72.81781509999999}},"location":{"lat":41.5404697,"lng":-72.8174825},"location_type":"ROOFTOP","viewport":{"northeast":{"lat":41.5418419802915,"lng":-72.81617451970848},"southwest":{"lat":41.5391440197085,"lng":-72.8188724802915}}},"partial_match":true,"place_id":"ChIJgaFDi5LJ54kR5DItNW8qDgw","types":["premise"],"name":"WALGREENS #05948"},{"address_components":[{"long_name":"203","short_name":"203","types":["street_number"]},{"long_name":"Kennedy Drive","short_name":"Kennedy Dr","types":["route"]},{"long_name":"Putnam District","short_name":"Putnam District","types":["neighborhood","political"]},{"long_name":"Putnam","short_name":"Putnam","types":["locality","political"]},{"long_name":"Windham County","short_name":"Windham County","types":["administrative_area_level_2","political"]},{"long_name":"Connecticut","short_name":"CT","types":["administrative_area_level_1","political"]},{"long_name":"United States","short_name":"US","types":["country","political"]},{"long_name":"06260","short_name":"06260","types":["postal_code"]}],"formatted_address":"203 Kennedy Dr, Putnam, CT 06260, USA","geometry":{"bounds":{"northeast":{"lat":41.9178633,"lng":-71.90917569999999},"southwest":{"lat":41.917386,"lng":-71.90977219999999}},"location":{"lat":41.91756470000001,"lng":-71.9094744},"location_type":"ROOFTOP","viewport":{"northeast":{"lat":41.9189736302915,"lng":-71.90812496970848},"southwest":{"lat":41.9162756697085,"lng":-71.91082293029149}}},"partial_match":true,"place_id":"ChIJXWtKxKsn5IkRQ4G9gRmGTMg","types":["premise"],"name":"WALGREENS #17500"},{"address_components":[{"long_name":"3164","short_name":"3164","types":["street_number"]},{"long_name":"Berlin Turnpike","short_name":"Berlin Turnpike","types":["route"]},{"long_name":"Newington","short_name":"Newington","types":["locality","political"]},{"long_name":"Hartford County","short_name":"Hartford County","types":["administrative_area_level_2","political"]},{"long_name":"Connecticut","short_name":"CT","types":["administrative_area_level_1","political"]},{"long_name":"United States","short_name":"US","types":["country","political"]},{"long_name":"06111","short_name":"06111","types":["postal_code"]}],"formatted_address":"3164 Berlin Turnpike, Newington, CT 06111, USA","geometry":{"bounds":{"northeast":{"lat":41.6637636,"lng":-72.71757989999999},"southwest":{"lat":41.6623851,"lng":-72.719228}},"location":{"lat":41.6629796,"lng":-72.7183982},"location_type":"ROOFTOP","viewport":{"northeast":{"lat":41.6644233302915,"lng":-72.7170549697085},"southwest":{"lat":41.6617253697085,"lng":-72.7197529302915}}},"partial_match":true,"place_id":"ChIJg-B11Smz54kR4xMPlTW6O1U","types":["subpremise"],"name":"WAL-MART PHARMACY #10-2965"},{"address_components":[{"long_name":"224","short_name":"224","types":["street_number"]},{"long_name":"Salem Turnpike","short_name":"Salem Turnpike","types":["route"]},{"long_name":"Westside Norwich","short_name":"Westside Norwich","types":["neighborhood","political"]},{"long_name":"Norwich","short_name":"Norwich","types":["locality","political"]},{"long_name":"New London County","short_name":"New London County","types":["administrative_area_level_2","political"]},{"long_name":"Connecticut","short_name":"CT","types":["administrative_area_level_1","political"]},{"long_name":"United States","short_name":"US","types":["country","political"]},{"long_name":"06360","short_name":"06360","types":["postal_code"]}],"formatted_address":"224 Salem Turnpike, Norwich, CT 06360, USA","geometry":{"location":{"lat":41.505296,"lng":-72.12348469999999},"location_type":"ROOFTOP","viewport":{"northeast":{"lat":41.5066449802915,"lng":-72.12213571970848},"southwest":{"lat":41.50394701970851,"lng":-72.12483368029149}}},"partial_match":true,"place_id":"ChIJAS3ZNWly5okRGtXjtPABGyQ","plus_code":{"compound_code":"GV4G+4J Norwich, Connecticut, United States","global_code":"87H9GV4G+4J"},"types":["street_address"],"name":"BIG Y PHARMACY #30"},{"address_components":[{"long_name":"240","short_name":"240","types":["street_number"]},{"long_name":"Chase Avenue","short_name":"Chase Ave","types":["route"]},{"long_name":"Waterbury","short_name":"Waterbury","types":["locality","political"]},{"long_name":"New Haven County","short_name":"New Haven County","types":["administrative_area_level_2","political"]},{"long_name":"Connecticut","short_name":"CT","types":["administrative_area_level_1","political"]},{"long_name":"United States","short_name":"US","types":["country","political"]},{"long_name":"06704","short_name":"06704","types":["postal_code"]}],"formatted_address":"240 Chase Ave, Waterbury, CT 06704, USA","geometry":{"location":{"lat":41.5828081,"lng":-73.0314333},"location_type":"ROOFTOP","viewport":{"northeast":{"lat":41.5841570802915,"lng":-73.03008431970851},"southwest":{"lat":41.58145911970851,"lng":-73.03278228029151}}},"partial_match":true,"place_id":"ChIJc-UArY_A54kRskvGq4L6Ld0","plus_code":{"compound_code":"HXM9+4C Waterbury, Connecticut, United States","global_code":"87H8HXM9+4C"},"types":["street_address"],"name":"STOP & SHOP PHARMACY #679"},{"address_components":[{"long_name":"235","short_name":"235","types":["street_number"]},{"long_name":"Queen Street","short_name":"Queen St","types":["route"]},{"long_name":"Southington","short_name":"Southington","types":["locality","political"]},{"long_name":"Hartford County","short_name":"Hartford County","types":["administrative_area_level_2","political"]},{"long_name":"Connecticut","short_name":"CT","types":["administrative_area_level_1","political"]},{"long_name":"United States","short_name":"US","types":["country","political"]},{"long_name":"06489","short_name":"06489","types":["postal_code"]},{"long_name":"1915","short_name":"1915","types":["postal_code_suffix"]}],"formatted_address":"235 Queen St, Southington, CT 06489, USA","geometry":{"location":{"lat":41.6231526,"lng":-72.870483},"location_type":"ROOFTOP","viewport":{"northeast":{"lat":41.62450158029149,"lng":-72.8691340197085},"southwest":{"lat":41.62180361970849,"lng":-72.8718319802915}}},"partial_match":true,"place_id":"ChIJe6Me8xO354kRpJvS3Y2Tmsc","plus_code":{"compound_code":"J4FH+7R Southington, Connecticut, United States","global_code":"87H9J4FH+7R"},"types":["street_address"],"name":"WAL-MART STORE #2897"},{"address_components":[{"long_name":"2","short_name":"2","types":["street_number"]},{"long_name":"Church Street","short_name":"Church St","types":["route"]},{"long_name":"Naugatuck","short_name":"Naugatuck","types":["locality","political"]},{"long_name":"New Haven County","short_name":"New Haven County","types":["administrative_area_level_2","political"]},{"long_name":"Connecticut","short_name":"CT","types":["administrative_area_level_1","political"]},{"long_name":"United States","short_name":"US","types":["country","political"]},{"long_name":"06770","short_name":"06770","types":["postal_code"]}],"formatted_address":"2 Church St, Naugatuck, CT 06770, USA","geometry":{"location":{"lat":41.4874187,"lng":-73.05644579999999},"location_type":"ROOFTOP","viewport":{"northeast":{"lat":41.4887676802915,"lng":-73.0550968197085},"southwest":{"lat":41.4860697197085,"lng":-73.0577947802915}}},"partial_match":true,"place_id":"ChIJ6ZFPw1vC54kRGMEOtOL0_qI","plus_code":{"compound_code":"FWPV+XC Naugatuck, Connecticut, United States","global_code":"87H8FWPV+XC"},"types":["street_address"],"name":"FORD PHARMACY & MED SUPPLY"},{"address_components":[{"long_name":"170","short_name":"170","types":["street_number"]},{"long_name":"East Street","short_name":"East St","types":["route"]},{"long_name":"Plainville","short_name":"Plainville","types":["locality","political"]},{"long_name":"Hartford County","short_name":"Hartford County","types":["administrative_area_level_2","political"]},{"long_name":"Connecticut","short_name":"CT","types":["administrative_area_level_1","political"]},{"long_name":"United States","short_name":"US","types":["country","political"]},{"long_name":"06062","short_name":"06062","types":["postal_code"]}],"formatted_address":"170 East St, Plainville, CT 06062, USA","geometry":{"location":{"lat":41.6638852,"lng":-72.86328859999999},"location_type":"ROOFTOP","viewport":{"northeast":{"lat":41.6652341802915,"lng":-72.8619396197085},"southwest":{"lat":41.6625362197085,"lng":-72.8646375802915}}},"partial_match":true,"place_id":"ChIJsYHnK92w54kRFfVcGHhdfs8","plus_code":{"compound_code":"M47P+HM Plainville, Connecticut, United States","global_code":"87H9M47P+HM"},"types":["street_address"],"name":"PLAINVILLE COMMUNITY PHARMACY"},{"address_components":[{"long_name":"134","short_name":"134","types":["street_number"]},{"long_name":"State Street","short_name":"State St","types":["route"]},{"long_name":"Meriden","short_name":"Meriden","types":["locality","political"]},{"long_name":"New Haven County","short_name":"New Haven County","types":["administrative_area_level_2","political"]},{"long_name":"Connecticut","short_name":"CT","types":["administrative_area_level_1","political"]},{"long_name":"United States","short_name":"US","types":["country","political"]},{"long_name":"06450","short_name":"06450","types":["postal_code"]}],"formatted_address":"134 State St, Meriden, CT 06450, USA","geometry":{"bounds":{"northeast":{"lat":41.541276,"lng":-72.7987261},"southwest":{"lat":41.54067939999999,"lng":-72.7994581}},"location":{"lat":41.5409706,"lng":-72.7990169},"location_type":"ROOFTOP","viewport":{"northeast":{"lat":41.5423266802915,"lng":-72.79774311970849},"southwest":{"lat":41.5396287197085,"lng":-72.8004410802915}}},"partial_match":true,"place_id":"ChIJjdjYRx_K54kRv_dpxyZUOlo","types":["premise"],"name":"WALGREENS #10003"},{"address_components":[{"long_name":"469","short_name":"469","types":["street_number"]},{"long_name":"Migeon Avenue","short_name":"Migeon Ave","types":["route"]},{"long_name":"Torrington","short_name":"Torrington","types":["locality","political"]},{"long_name":"Litchfield County","short_name":"Litchfield County","types":["administrative_area_level_2","political"]},{"long_name":"Connecticut","short_name":"CT","types":["administrative_area_level_1","political"]},{"long_name":"United States","short_name":"US","types":["country","political"]},{"long_name":"06790","short_name":"06790","types":["postal_code"]}],"formatted_address":"469 Migeon Ave, Torrington, CT 06790, USA","geometry":{"bounds":{"northeast":{"lat":41.8118396,"lng":-73.13267859999999},"southwest":{"lat":41.8114608,"lng":-73.133297}},"location":{"lat":41.8116183,"lng":-73.1329782},"location_type":"ROOFTOP","viewport":{"northeast":{"lat":41.8129991802915,"lng":-73.13163881970848},"southwest":{"lat":41.8103012197085,"lng":-73.1343367802915}}},"partial_match":true,"place_id":"ChIJa68nDv2Y54kRgKTVOFs7g9g","types":["premise"],"name":"COMMUNITY HEALTH RX, INC."},{"address_components":[{"long_name":"100DANBURYCT","short_name":"100DANBURYCT","types":["subpremise"]},{"long_name":"95","short_name":"95","types":["street_number"]},{"long_name":"Locust Avenue","short_name":"Locust Ave","types":["route"]},{"long_name":"Danbury","short_name":"Danbury","types":["locality","political"]},{"long_name":"Fairfield County","short_name":"Fairfield County","types":["administrative_area_level_2","political"]},{"long_name":"Connecticut","short_name":"CT","types":["administrative_area_level_1","political"]},{"long_name":"United States","short_name":"US","types":["country","political"]},{"long_name":"06810","short_name":"06810","types":["postal_code"]}],"formatted_address":"95 Locust Ave #100DANBURYCT, Danbury, CT 06810, USA","geometry":{"location":{"lat":41.4047697,"lng":-73.4450669},"location_type":"ROOFTOP","viewport":{"northeast":{"lat":41.40611868029149,"lng":-73.44371791970849},"southwest":{"lat":41.40342071970849,"lng":-73.44641588029151}}},"partial_match":true,"place_id":"EjMxMDBEQU5CVVJZQ1QsIDk1IExvY3VzdCBBdmUsIERhbmJ1cnksIENUIDA2ODEwLCBVU0EiKBomChYKFAoSCW1TyclB_-eJETVDuzkqQscxEgwxMDBEQU5CVVJZQ1Q","types":["subpremise"],"name":"WALGREENS #15590"},{"address_components":[{"long_name":"110","short_name":"110","types":["street_number"]},{"long_name":"Main Street","short_name":"Main St","types":["route"]},{"long_name":"Hebron","short_name":"Hebron","types":["locality","political"]},{"long_name":"Tolland County","short_name":"Tolland County","types":["administrative_area_level_2","political"]},{"long_name":"Connecticut","short_name":"CT","types":["administrative_area_level_1","political"]},{"long_name":"United States","short_name":"US","types":["country","political"]},{"long_name":"06248","short_name":"06248","types":["postal_code"]}],"formatted_address":"110 Main St, Hebron, CT 06248, USA","geometry":{"bounds":{"northeast":{"lat":41.66034750000001,"lng":-72.3558455},"southwest":{"lat":41.6599078,"lng":-72.3563027}},"location":{"lat":41.66011140000001,"lng":-72.3559939},"location_type":"ROOFTOP","viewport":{"northeast":{"lat":41.66147663029151,"lng":-72.35472511970849},"southwest":{"lat":41.65877866970851,"lng":-72.3574230802915}}},"partial_match":true,"place_id":"ChIJdUsKST9d5okRxtvTs1OGLHY","types":["premise"],"name":"CVS PHARMACY #10130"},{"address_components":[{"long_name":"435","short_name":"435","types":["street_number"]},{"long_name":"Main Street","short_name":"Main St","types":["route"]},{"long_name":"Monroe","short_name":"Monroe","types":["locality","political"]},{"long_name":"Fairfield County","short_name":"Fairfield County","types":["administrative_area_level_2","political"]},{"long_name":"Connecticut","short_name":"CT","types":["administrative_area_level_1","political"]},{"long_name":"United States","short_name":"US","types":["country","political"]},{"long_name":"06468","short_name":"06468","types":["postal_code"]}],"formatted_address":"435 Main St, Monroe, CT 06468, USA","geometry":{"bounds":{"northeast":{"lat":41.3219535,"lng":-73.2653986},"southwest":{"lat":41.3211401,"lng":-73.26619749999999}},"location":{"lat":41.3214955,"lng":-73.2660076},"location_type":"ROOFTOP","viewport":{"northeast":{"lat":41.3228957802915,"lng":-73.26444906970849},"southwest":{"lat":41.3201978197085,"lng":-73.2671470302915}}},"partial_match":true,"place_id":"ChIJL2vjkaji54kR565lMTOsDeM","types":["premise"],"name":"RITE AID  #10370"},{"address_components":[{"long_name":"54","short_name":"54","types":["street_number"]},{"long_name":"West Avenue","short_name":"West Ave","types":["route"]},{"long_name":"Norwalk","short_name":"Norwalk","types":["locality","political"]},{"long_name":"Fairfield County","short_name":"Fairfield County","types":["administrative_area_level_2","political"]},{"long_name":"Connecticut","short_name":"CT","types":["administrative_area_level_1","political"]},{"long_name":"United States","short_name":"US","types":["country","political"]},{"long_name":"06854","short_name":"06854","types":["postal_code"]},{"long_name":"2225","short_name":"2225","types":["postal_code_suffix"]}],"formatted_address":"54 West Ave, Norwalk, CT 06854, USA","geometry":{"bounds":{"northeast":{"lat":41.1039103,"lng":-73.4199768},"southwest":{"lat":41.1036087,"lng":-73.4203527}},"location":{"lat":41.1038026,"lng":-73.42013899999999},"location_type":"ROOFTOP","viewport":{"northeast":{"lat":41.10510848029149,"lng":-73.41881576970849},"southwest":{"lat":41.10241051970849,"lng":-73.42151373029151}}},"partial_match":true,"place_id":"ChIJgZc3Tn4e6IkRiC_1tDSMvWc","types":["premise"],"name":"WALGREENS #10177"},{"address_components":[{"long_name":"618","short_name":"618","types":["street_number"]},{"long_name":"West Avenue","short_name":"West Ave","types":["route"]},{"long_name":"Norwalk","short_name":"Norwalk","types":["locality","political"]},{"long_name":"Fairfield County","short_name":"Fairfield County","types":["administrative_area_level_2","political"]},{"long_name":"Connecticut","short_name":"CT","types":["administrative_area_level_1","political"]},{"long_name":"United States","short_name":"US","types":["country","political"]},{"long_name":"06850","short_name":"06850","types":["postal_code"]},{"long_name":"4008","short_name":"4008","types":["postal_code_suffix"]}],"formatted_address":"618 West Ave, Norwalk, CT 06850, USA","geometry":{"bounds":{"northeast":{"lat":41.113729,"lng":-73.41565},"southwest":{"lat":41.1135084,"lng":-73.4160919}},"location":{"lat":41.11362949999999,"lng":-73.41584689999999},"location_type":"ROOFTOP","viewport":{"northeast":{"lat":41.1149676802915,"lng":-73.41452196970849},"southwest":{"lat":41.11226971970851,"lng":-73.41721993029151}}},"partial_match":true,"place_id":"ChIJFZi8HC0c6IkRPIkYRItEGgg","types":["premise"],"name":"CIRCLE CARE CENTER PHARMACY"},{"address_components":[{"long_name":"315","short_name":"315","types":["street_number"]},{"long_name":"Foxon Boulevard","short_name":"Foxon Blvd","types":["route"]},{"long_name":"Quinnipiac Meadows","short_name":"Quinnipiac Meadows","types":["neighborhood","political"]},{"long_name":"New Haven","short_name":"New Haven","types":["locality","political"]},{"long_name":"New Haven County","short_name":"New Haven County","types":["administrative_area_level_2","political"]},{"long_name":"Connecticut","short_name":"CT","types":["administrative_area_level_1","political"]},{"long_name":"United States","short_name":"US","types":["country","political"]},{"long_name":"06513","short_name":"06513","types":["postal_code"]}],"formatted_address":"315 Foxon Blvd, New Haven, CT 06513, USA","geometry":{"bounds":{"northeast":{"lat":41.32215730000001,"lng":-72.8749158},"southwest":{"lat":41.3193759,"lng":-72.8788174}},"location":{"lat":41.3202225,"lng":-72.8773938},"location_type":"GEOMETRIC_CENTER","viewport":{"northeast":{"lat":41.32215730000001,"lng":-72.8749158},"southwest":{"lat":41.3193759,"lng":-72.8788174}}},"partial_match":true,"place_id":"ChIJKbqG9UDX54kRFEjbAWGExkA","types":["premise"],"name":"WAL-MART PHARMACY #10-5439"},{"address_components":[{"long_name":"817","short_name":"817","types":["street_number"]},{"long_name":"Bank Street","short_name":"Bank St","types":["route"]},{"long_name":"New London","short_name":"New London","types":["locality","political"]},{"long_name":"New London County","short_name":"New London County","types":["administrative_area_level_2","political"]},{"long_name":"Connecticut","short_name":"CT","types":["administrative_area_level_1","political"]},{"long_name":"United States","short_name":"US","types":["country","political"]},{"long_name":"06320","short_name":"06320","types":["postal_code"]},{"long_name":"3503","short_name":"3503","types":["postal_code_suffix"]}],"formatted_address":"817 Bank St, New London, CT 06320, USA","geometry":{"bounds":{"northeast":{"lat":41.3492336,"lng":-72.10704009999999},"southwest":{"lat":41.3488392,"lng":-72.1076592}},"location":{"lat":41.3490361,"lng":-72.1073177},"location_type":"ROOFTOP","viewport":{"northeast":{"lat":41.3503853802915,"lng":-72.1060006697085},"southwest":{"lat":41.3476874197085,"lng":-72.10869863029151}}},"partial_match":true,"place_id":"ChIJ1Q-IXkMO5okRJd3JQnlKIKY","types":["premise"],"name":"CVS PHARMACY #1080"},{"address_components":[{"long_name":"11","short_name":"11","types":["street_number"]},{"long_name":"Connecticut 37","short_name":"CT-37","types":["route"]},{"long_name":"New Fairfield","short_name":"New Fairfield","types":["locality","political"]},{"long_name":"Fairfield County","short_name":"Fairfield County","types":["administrative_area_level_2","political"]},{"long_name":"Connecticut","short_name":"CT","types":["administrative_area_level_1","political"]},{"long_name":"United States","short_name":"US","types":["country","political"]},{"long_name":"06812","short_name":"06812","types":["postal_code"]}],"formatted_address":"11 CT-37, New Fairfield, CT 06812, USA","geometry":{"location":{"lat":41.466182,"lng":-73.486519},"location_type":"ROOFTOP","viewport":{"northeast":{"lat":41.46753098029149,"lng":-73.48517001970849},"southwest":{"lat":41.46483301970849,"lng":-73.4878679802915}}},"place_id":"ChIJD4eHBTVW3YkRmtqAqRyRpEw","plus_code":{"compound_code":"FG87+F9 New Fairfield, Connecticut, United States","global_code":"87H8FG87+F9"},"types":["street_address"],"name":"CANDLEWOOD DRUGS"},{"address_components":[{"long_name":"600","short_name":"600","types":["street_number"]},{"long_name":"Executive Boulevard South","short_name":"Executive Blvd S","types":["route"]},{"long_name":"Southington","short_name":"Southington","types":["locality","political"]},{"long_name":"Hartford County","short_name":"Hartford County","types":["administrative_area_level_2","political"]},{"long_name":"Connecticut","short_name":"CT","types":["administrative_area_level_1","political"]},{"long_name":"United States","short_name":"US","types":["country","political"]},{"long_name":"06489","short_name":"06489","types":["postal_code"]}],"formatted_address":"600 Executive Blvd S, Southington, CT 06489, USA","geometry":{"bounds":{"northeast":{"lat":41.611435,"lng":-72.90117289999999},"southwest":{"lat":41.6104667,"lng":-72.90265160000001}},"location":{"lat":41.6112499,"lng":-72.90127489999999},"location_type":"ROOFTOP","viewport":{"northeast":{"lat":41.6122998302915,"lng":-72.9005632697085},"southwest":{"lat":41.6096018697085,"lng":-72.9032612302915}}},"partial_match":true,"place_id":"ChIJDerKVSq454kR4yK3nuVnjyI","types":["premise"],"name":"CVS/PHARMACY #17491"},{"address_components":[{"long_name":"106","short_name":"106","types":["street_number"]},{"long_name":"Sebethe Drive","short_name":"Sebethe Dr","types":["route"]},{"long_name":"Cromwell","short_name":"Cromwell","types":["locality","political"]},{"long_name":"Middlesex County","short_name":"Middlesex County","types":["administrative_area_level_2","political"]},{"long_name":"Connecticut","short_name":"CT","types":["administrative_area_level_1","political"]},{"long_name":"United States","short_name":"US","types":["country","political"]},{"long_name":"06416","short_name":"06416","types":["postal_code"]}],"formatted_address":"106 Sebethe Dr, Cromwell, CT 06416, USA","geometry":{"location":{"lat":41.6109433,"lng":-72.7064443},"location_type":"ROOFTOP","viewport":{"northeast":{"lat":41.61229228029149,"lng":-72.70509531970849},"southwest":{"lat":41.6095943197085,"lng":-72.7077932802915}}},"partial_match":true,"place_id":"ChIJqUhSqU1L5okRBelgE5BTeF0","plus_code":{"compound_code":"J76V+9C Cromwell, Portland, CT, United States","global_code":"87H9J76V+9C"},"types":["street_address"],"name":"PROFESSIONAL HOMECARE SERVICES INC"},{"address_components":[{"long_name":"150","short_name":"150","types":["street_number"]},{"long_name":"Barnum Avenue Cutoff","short_name":"Barnum Avenue Cutoff","types":["route"]},{"long_name":"Stratford","short_name":"Stratford","types":["locality","political"]},{"long_name":"Fairfield County","short_name":"Fairfield County","types":["administrative_area_level_2","political"]},{"long_name":"Connecticut","short_name":"CT","types":["administrative_area_level_1","political"]},{"long_name":"United States","short_name":"US","types":["country","political"]},{"long_name":"06614","short_name":"06614","types":["postal_code"]},{"long_name":"5111","short_name":"5111","types":["postal_code_suffix"]}],"formatted_address":"150 Barnum Avenue Cutoff, Stratford, CT 06614, USA","geometry":{"bounds":{"northeast":{"lat":41.20203799999999,"lng":-73.1178485},